{"objects": [
{"type": "Feature", "properties": {"id" : 0, 	"station" : "Broadway Jct_0", 	"delay" : 326405791.399}, 	"geometry": { "type": "Point","coordinates": [-73.904579200000001, 40.678903999999996]} }, 
{"type": "Feature", "properties": {"id" : 1, 	"station" : "Jackson Hts - Roosevelt Av_0", 	"delay" : 315917299.582}, 	"geometry": { "type": "Point","coordinates": [-73.891338000000005, 40.746644000000003]} }, 
{"type": "Feature", "properties": {"id" : 2, 	"station" : "Kew Gardens - Union Tpke_0", 	"delay" : 278833714.346}, 	"geometry": { "type": "Point","coordinates": [-73.831007999999997, 40.714441000000001]} }, 
{"type": "Feature", "properties": {"id" : 3, 	"station" : "Junction Blvd_0", 	"delay" : 269649748.36}, 	"geometry": { "type": "Point","coordinates": [-73.869527000000005, 40.749144999999999]} }, 
{"type": "Feature", "properties": {"id" : 4, 	"station" : "149 St - Grand Concourse_0", 	"delay" : 264481925.8}, 	"geometry": { "type": "Point","coordinates": [-73.926929000000001, 40.818398333299996]} }, 
{"type": "Feature", "properties": {"id" : 5, 	"station" : "125 St_2", 	"delay" : 256294926.729}, 	"geometry": { "type": "Point","coordinates": [-73.93759399999999, 40.804138000000002]} }, 
{"type": "Feature", "properties": {"id" : 6, 	"station" : "Queensboro Plaza_0", 	"delay" : 251635172.674}, 	"geometry": { "type": "Point","coordinates": [-73.940201999999999, 40.750582000000001]} }, 
{"type": "Feature", "properties": {"id" : 7, 	"station" : "Forest Hills - 71 Av_0", 	"delay" : 239005252.28}, 	"geometry": { "type": "Point","coordinates": [-73.844521, 40.721691]} }, 
{"type": "Feature", "properties": {"id" : 8, 	"station" : "36 St_0", 	"delay" : 233420219.224}, 	"geometry": { "type": "Point","coordinates": [-74.003548999999992, 40.655144]} }, 
{"type": "Feature", "properties": {"id" : 9, 	"station" : "Grand Central - 42 St_0", 	"delay" : 223630136.984}, 	"geometry": { "type": "Point","coordinates": [-73.976686599999994, 40.751707000000003]} }, 
{"type": "Feature", "properties": {"id" : 10, 	"station" : "3 Av - 149 St_0", 	"delay" : 221492451.073}, 	"geometry": { "type": "Point","coordinates": [-73.917756999999995, 40.816109000000004]} }, 
{"type": "Feature", "properties": {"id" : 11, 	"station" : "Euclid Av_0", 	"delay" : 219364349.561}, 	"geometry": { "type": "Point","coordinates": [-73.872106000000002, 40.675377000000005]} }, 
{"type": "Feature", "properties": {"id" : 12, 	"station" : "59 St_0", 	"delay" : 207149456.813}, 	"geometry": { "type": "Point","coordinates": [-73.967967000000002, 40.762526000000001]} }, 
{"type": "Feature", "properties": {"id" : 13, 	"station" : "Franklin Av_1", 	"delay" : 205134091.42}, 	"geometry": { "type": "Point","coordinates": [-73.958131000000009, 40.670681999999999]} }, 
{"type": "Feature", "properties": {"id" : 14, 	"station" : "39 Av_0", 	"delay" : 204933506.546}, 	"geometry": { "type": "Point","coordinates": [-73.932755, 40.752882]} }, 
{"type": "Feature", "properties": {"id" : 15, 	"station" : "Atlantic Av - Barclays Ctr_0", 	"delay" : 202337824.543}, 	"geometry": { "type": "Point","coordinates": [-73.977874888900004, 40.684150444400004]} }, 
{"type": "Feature", "properties": {"id" : 16, 	"station" : "161 St - Yankee Stadium_0", 	"delay" : 197887515.002}, 	"geometry": { "type": "Point","coordinates": [-73.925710999999993, 40.827934666700003]} }, 
{"type": "Feature", "properties": {"id" : 17, 	"station" : "3 Av - 138 St_0", 	"delay" : 194087921.022}, 	"geometry": { "type": "Point","coordinates": [-73.926137999999995, 40.810476000000001]} }, 
{"type": "Feature", "properties": {"id" : 18, 	"station" : "Grant Av_0", 	"delay" : 192666263.702}, 	"geometry": { "type": "Point","coordinates": [-73.865049999999997, 40.677044000000002]} }, 
{"type": "Feature", "properties": {"id" : 19, 	"station" : "36 Av_0", 	"delay" : 191517800.086}, 	"geometry": { "type": "Point","coordinates": [-73.929575, 40.756803999999995]} }, 
{"type": "Feature", "properties": {"id" : 20, 	"station" : "Prospect Park_0", 	"delay" : 188870530.963}, 	"geometry": { "type": "Point","coordinates": [-73.962245999999993, 40.661614]} }, 
{"type": "Feature", "properties": {"id" : 21, 	"station" : "Parsons Blvd_0", 	"delay" : 181375845.641}, 	"geometry": { "type": "Point","coordinates": [-73.803325999999998, 40.707563999999998]} }, 
{"type": "Feature", "properties": {"id" : 22, 	"station" : "80 St_0", 	"delay" : 180168726.064}, 	"geometry": { "type": "Point","coordinates": [-73.858992000000001, 40.679371000000003]} }, 
{"type": "Feature", "properties": {"id" : 23, 	"station" : "Church Av_1", 	"delay" : 170979328.969}, 	"geometry": { "type": "Point","coordinates": [-73.962981999999997, 40.650527000000004]} }, 
{"type": "Feature", "properties": {"id" : 24, 	"station" : "Broadway_1", 	"delay" : 167599119.07}, 	"geometry": { "type": "Point","coordinates": [-73.925507999999994, 40.76182]} }, 
{"type": "Feature", "properties": {"id" : 25, 	"station" : "86 St_1", 	"delay" : 164172253.089}, 	"geometry": { "type": "Point","coordinates": [-73.955589000000003, 40.779491999999998]} }, 
{"type": "Feature", "properties": {"id" : 26, 	"station" : "88 St_0", 	"delay" : 160529869.789}, 	"geometry": { "type": "Point","coordinates": [-73.851469999999992, 40.679842999999998]} }, 
{"type": "Feature", "properties": {"id" : 27, 	"station" : "Hunts Point Av_0", 	"delay" : 158457927.13}, 	"geometry": { "type": "Point","coordinates": [-73.890548999999993, 40.820948000000001]} }, 
{"type": "Feature", "properties": {"id" : 28, 	"station" : "E 180 St_0", 	"delay" : 157332129.063}, 	"geometry": { "type": "Point","coordinates": [-73.873487999999995, 40.841894000000003]} }, 
{"type": "Feature", "properties": {"id" : 29, 	"station" : "167 St_0", 	"delay" : 153775176.158}, 	"geometry": { "type": "Point","coordinates": [-73.921400000000006, 40.835537000000002]} }, 
{"type": "Feature", "properties": {"id" : 30, 	"station" : "Lexington Av/63 St_0", 	"delay" : 153163970.766}, 	"geometry": { "type": "Point","coordinates": [-73.966113000000007, 40.764628999999999]} }, 
{"type": "Feature", "properties": {"id" : 31, 	"station" : "Mets - Willets Point_0", 	"delay" : 153020025.649}, 	"geometry": { "type": "Point","coordinates": [-73.845624999999998, 40.754621999999998]} }, 
{"type": "Feature", "properties": {"id" : 32, 	"station" : "Rockaway Blvd_0", 	"delay" : 146905299.215}, 	"geometry": { "type": "Point","coordinates": [-73.843852999999996, 40.680428999999997]} }, 
{"type": "Feature", "properties": {"id" : 33, 	"station" : "Times Sq - 42 St_0", 	"delay" : 145182887.829}, 	"geometry": { "type": "Point","coordinates": [-73.987091599999999, 40.755130799999996]} }, 
{"type": "Feature", "properties": {"id" : 34, 	"station" : "14 St - Union Sq_0", 	"delay" : 143561929.3}, 	"geometry": { "type": "Point","coordinates": [-73.990259499999993, 40.735204500000002]} }, 
{"type": "Feature", "properties": {"id" : 35, 	"station" : "President St_0", 	"delay" : 143484676.568}, 	"geometry": { "type": "Point","coordinates": [-73.950682999999998, 40.667883000000003]} }, 
{"type": "Feature", "properties": {"id" : 36, 	"station" : "34 St - Herald Sq_0", 	"delay" : 140234090.533}, 	"geometry": { "type": "Point","coordinates": [-73.987886500000002, 40.749642999999999]} }, 
{"type": "Feature", "properties": {"id" : 37, 	"station" : "30 Av_0", 	"delay" : 137043733.026}, 	"geometry": { "type": "Point","coordinates": [-73.921479000000005, 40.766779]} }, 
{"type": "Feature", "properties": {"id" : 38, 	"station" : "Sterling St_0", 	"delay" : 133027782.432}, 	"geometry": { "type": "Point","coordinates": [-73.950850000000003, 40.662742000000001]} }, 
{"type": "Feature", "properties": {"id" : 39, 	"station" : "59 St_1", 	"delay" : 131305967.907}, 	"geometry": { "type": "Point","coordinates": [-74.017881000000003, 40.641362000000001]} }, 
{"type": "Feature", "properties": {"id" : 40, 	"station" : "Newkirk Plaza_0", 	"delay" : 123750250.403}, 	"geometry": { "type": "Point","coordinates": [-73.962793000000005, 40.635082000000004]} }, 
{"type": "Feature", "properties": {"id" : 41, 	"station" : "Myrtle - Wyckoff Avs_0", 	"delay" : 121898693.744}, 	"geometry": { "type": "Point","coordinates": [-73.9119855, 40.699621999999998]} }, 
{"type": "Feature", "properties": {"id" : 42, 	"station" : "59 St - Columbus Circle_0", 	"delay" : 121358401.444}, 	"geometry": { "type": "Point","coordinates": [-73.981818714300005, 40.768275000000003]} }, 
{"type": "Feature", "properties": {"id" : 43, 	"station" : "Winthrop St_0", 	"delay" : 120862367.674}, 	"geometry": { "type": "Point","coordinates": [-73.950199999999995, 40.656652000000001]} }, 
{"type": "Feature", "properties": {"id" : 44, 	"station" : "Livonia Av_0", 	"delay" : 110132731.174}, 	"geometry": { "type": "Point","coordinates": [-73.900570999999999, 40.664037999999998]} }, 
{"type": "Feature", "properties": {"id" : 45, 	"station" : "168 St - Washington Hts_0", 	"delay" : 108488210.707}, 	"geometry": { "type": "Point","coordinates": [-73.940132999999989, 40.840555999999999]} }, 
{"type": "Feature", "properties": {"id" : 46, 	"station" : "72 St_2", 	"delay" : 108403102.07}, 	"geometry": { "type": "Point","coordinates": [-73.958423999999994, 40.768799000000001]} }, 
{"type": "Feature", "properties": {"id" : 47, 	"station" : "72 St_0", 	"delay" : 104276034.549}, 	"geometry": { "type": "Point","coordinates": [-73.98196999999999, 40.778453000000006]} }, 
{"type": "Feature", "properties": {"id" : 48, 	"station" : "Flushing - Main St_0", 	"delay" : 102467186.766}, 	"geometry": { "type": "Point","coordinates": [-73.830030000000008, 40.759599999999999]} }, 
{"type": "Feature", "properties": {"id" : 49, 	"station" : "Parkchester_0", 	"delay" : 101688701.246}, 	"geometry": { "type": "Point","coordinates": [-73.860816, 40.833226000000003]} }, 
{"type": "Feature", "properties": {"id" : 50, 	"station" : "Church Av_0", 	"delay" : 100825848.874}, 	"geometry": { "type": "Point","coordinates": [-73.949574999999996, 40.650843000000002]} }, 
{"type": "Feature", "properties": {"id" : 51, 	"station" : "170 St_0", 	"delay" : 100474160.741}, 	"geometry": { "type": "Point","coordinates": [-73.917791000000008, 40.840074999999999]} }, 
{"type": "Feature", "properties": {"id" : 52, 	"station" : "51 St_0", 	"delay" : 100265401.95}, 	"geometry": { "type": "Point","coordinates": [-73.971919999999997, 40.757106999999998]} }, 
{"type": "Feature", "properties": {"id" : 53, 	"station" : "181 St_0", 	"delay" : 99186743.1656}, 	"geometry": { "type": "Point","coordinates": [-73.933595999999994, 40.849505000000001]} }, 
{"type": "Feature", "properties": {"id" : 54, 	"station" : "Jay St - MetroTech_0", 	"delay" : 97062626.0919}, 	"geometry": { "type": "Point","coordinates": [-73.986781999999991, 40.6922748]} }, 
{"type": "Feature", "properties": {"id" : 55, 	"station" : "New Lots Av_1", 	"delay" : 96077432.5172}, 	"geometry": { "type": "Point","coordinates": [-73.899231999999998, 40.658733000000005]} }, 
{"type": "Feature", "properties": {"id" : 56, 	"station" : "Wall St_1", 	"delay" : 93856732.8181}, 	"geometry": { "type": "Point","coordinates": [-74.011861999999994, 40.707557000000001]} }, 
{"type": "Feature", "properties": {"id" : 57, 	"station" : "168 St_0", 	"delay" : 93620869.6508}, 	"geometry": { "type": "Point","coordinates": [-73.939560999999998, 40.840719]} }, 
{"type": "Feature", "properties": {"id" : 58, 	"station" : "Tremont Av_0", 	"delay" : 93553895.8103}, 	"geometry": { "type": "Point","coordinates": [-73.905226999999996, 40.850409999999997]} }, 
{"type": "Feature", "properties": {"id" : 59, 	"station" : "Lexington Av/53 St_0", 	"delay" : 93549428.7441}, 	"geometry": { "type": "Point","coordinates": [-73.969055000000012, 40.757552000000004]} }, 
{"type": "Feature", "properties": {"id" : 60, 	"station" : "Lorimer St_1", 	"delay" : 92771860.7295}, 	"geometry": { "type": "Point","coordinates": [-73.950275000000005, 40.714063000000003]} }, 
{"type": "Feature", "properties": {"id" : 61, 	"station" : "Sutphin Blvd - Archer Av - JFK Airport_0", 	"delay" : 92660090.1741}, 	"geometry": { "type": "Point","coordinates": [-73.807969, 40.700485999999998]} }, 
{"type": "Feature", "properties": {"id" : 62, 	"station" : "Bay Ridge Av_0", 	"delay" : 90647202.2747}, 	"geometry": { "type": "Point","coordinates": [-74.023376999999996, 40.634966999999996]} }, 
{"type": "Feature", "properties": {"id" : 63, 	"station" : "Fulton St_1", 	"delay" : 89515357.0672}, 	"geometry": { "type": "Point","coordinates": [-74.008781799999994, 40.710299600000006]} }, 
{"type": "Feature", "properties": {"id" : 64, 	"station" : "191 St_0", 	"delay" : 89451033.4968}, 	"geometry": { "type": "Point","coordinates": [-73.929411999999999, 40.855224999999997]} }, 
{"type": "Feature", "properties": {"id" : 65, 	"station" : "Seneca Av_0", 	"delay" : 87442239.9792}, 	"geometry": { "type": "Point","coordinates": [-73.907740000000004, 40.702762]} }, 
{"type": "Feature", "properties": {"id" : 66, 	"station" : "82 St - Jackson Hts_0", 	"delay" : 86558845.0637}, 	"geometry": { "type": "Point","coordinates": [-73.883696999999998, 40.747659000000006]} }, 
{"type": "Feature", "properties": {"id" : 67, 	"station" : "Union Sq - 14 St_0", 	"delay" : 85133036.4791}, 	"geometry": { "type": "Point","coordinates": [-73.990729999999999, 40.734788999999999]} }, 
{"type": "Feature", "properties": {"id" : 68, 	"station" : "Aqueduct - N Conduit Av_0", 	"delay" : 85071220.034}, 	"geometry": { "type": "Point","coordinates": [-73.834057999999999, 40.668234000000005]} }, 
{"type": "Feature", "properties": {"id" : 69, 	"station" : "Kings Hwy_0", 	"delay" : 84282687.3848}, 	"geometry": { "type": "Point","coordinates": [-73.957734000000002, 40.608670000000004]} }, 
{"type": "Feature", "properties": {"id" : 70, 	"station" : "Beverly Rd_0", 	"delay" : 84114137.7523}, 	"geometry": { "type": "Point","coordinates": [-73.948959000000002, 40.645097999999997]} }, 
{"type": "Feature", "properties": {"id" : 71, 	"station" : "74 St - Broadway_0", 	"delay" : 83935984.1966}, 	"geometry": { "type": "Point","coordinates": [-73.891393999999991, 40.746848]} }, 
{"type": "Feature", "properties": {"id" : 72, 	"station" : "90 St - Elmhurst Av_0", 	"delay" : 83616280.7526}, 	"geometry": { "type": "Point","coordinates": [-73.876613000000006, 40.748408000000005]} }, 
{"type": "Feature", "properties": {"id" : 73, 	"station" : "145 St_0", 	"delay" : 83423715.5713}, 	"geometry": { "type": "Point","coordinates": [-73.944215999999997, 40.824783000000004]} }, 
{"type": "Feature", "properties": {"id" : 74, 	"station" : "Mt Eden Av_0", 	"delay" : 83212860.3008}, 	"geometry": { "type": "Point","coordinates": [-73.914684999999992, 40.844434]} }, 
{"type": "Feature", "properties": {"id" : 75, 	"station" : "4 Av_0", 	"delay" : 83167893.633}, 	"geometry": { "type": "Point","coordinates": [-73.989778999999999, 40.670271999999997]} }, 
{"type": "Feature", "properties": {"id" : 76, 	"station" : "Astoria Blvd_0", 	"delay" : 82946961.5919}, 	"geometry": { "type": "Point","coordinates": [-73.917843000000005, 40.770257999999998]} }, 
{"type": "Feature", "properties": {"id" : 77, 	"station" : "169 St_0", 	"delay" : 81985477.9492}, 	"geometry": { "type": "Point","coordinates": [-73.793604000000002, 40.710470000000001]} }, 
{"type": "Feature", "properties": {"id" : 78, 	"station" : "Hoyt - Schermerhorn Sts_0", 	"delay" : 81539629.5011}, 	"geometry": { "type": "Point","coordinates": [-73.985000999999997, 40.688484000000003]} }, 
{"type": "Feature", "properties": {"id" : 79, 	"station" : "34 St - Penn Station_0", 	"delay" : 81124382.4464}, 	"geometry": { "type": "Point","coordinates": [-73.991056999999998, 40.750372999999996]} }, 
{"type": "Feature", "properties": {"id" : 80, 	"station" : "Bronx Park East_0", 	"delay" : 80830420.6489}, 	"geometry": { "type": "Point","coordinates": [-73.868456999999992, 40.848828000000005]} }, 
{"type": "Feature", "properties": {"id" : 81, 	"station" : "Jamaica - 179 St_0", 	"delay" : 80711043.0593}, 	"geometry": { "type": "Point","coordinates": [-73.783816999999999, 40.712645999999999]} }, 
{"type": "Feature", "properties": {"id" : 82, 	"station" : "3 Av_0", 	"delay" : 80629606.838}, 	"geometry": { "type": "Point","coordinates": [-73.986121999999995, 40.732849000000002]} }, 
{"type": "Feature", "properties": {"id" : 83, 	"station" : "Burnside Av_0", 	"delay" : 80326356.3465}, 	"geometry": { "type": "Point","coordinates": [-73.907684000000003, 40.853453000000002]} }, 
{"type": "Feature", "properties": {"id" : 84, 	"station" : "Dyckman St_0", 	"delay" : 78972407.3978}, 	"geometry": { "type": "Point","coordinates": [-73.925535999999994, 40.860531000000002]} }, 
{"type": "Feature", "properties": {"id" : 85, 	"station" : "42 St - Port Authority Bus Terminal_0", 	"delay" : 78941772.0126}, 	"geometry": { "type": "Point","coordinates": [-73.989734999999996, 40.757308000000002]} }, 
{"type": "Feature", "properties": {"id" : 86, 	"station" : "Fulton St_0", 	"delay" : 78639689.6565}, 	"geometry": { "type": "Point","coordinates": [-74.006907999999996, 40.709735333299996]} }, 
{"type": "Feature", "properties": {"id" : 87, 	"station" : "Bedford Av_0", 	"delay" : 78484851.306}, 	"geometry": { "type": "Point","coordinates": [-73.956872000000004, 40.717303999999999]} }, 
{"type": "Feature", "properties": {"id" : 88, 	"station" : "Graham Av_0", 	"delay" : 78207176.4903}, 	"geometry": { "type": "Point","coordinates": [-73.944052999999997, 40.714565]} }, 
{"type": "Feature", "properties": {"id" : 89, 	"station" : "34 St - Penn Station_1", 	"delay" : 76982130.6167}, 	"geometry": { "type": "Point","coordinates": [-73.993391000000003, 40.752287000000003]} }, 
{"type": "Feature", "properties": {"id" : 90, 	"station" : "47-50 Sts - Rockefeller Ctr_0", 	"delay" : 76858204.4696}, 	"geometry": { "type": "Point","coordinates": [-73.981329000000002, 40.758662999999999]} }, 
{"type": "Feature", "properties": {"id" : 91, 	"station" : "33 St_0", 	"delay" : 76720895.9908}, 	"geometry": { "type": "Point","coordinates": [-73.982076000000006, 40.746080999999997]} }, 
{"type": "Feature", "properties": {"id" : 92, 	"station" : "5 Av/53 St_0", 	"delay" : 76659499.7661}, 	"geometry": { "type": "Point","coordinates": [-73.975223999999997, 40.760166999999996]} }, 
{"type": "Feature", "properties": {"id" : 93, 	"station" : "W 4 St_0", 	"delay" : 76243580.2394}, 	"geometry": { "type": "Point","coordinates": [-74.000495000000001, 40.732337999999999]} }, 
{"type": "Feature", "properties": {"id" : 94, 	"station" : "125 St_3", 	"delay" : 76107032.3074}, 	"geometry": { "type": "Point","coordinates": [-73.952342999999999, 40.811109000000002]} }, 
{"type": "Feature", "properties": {"id" : 95, 	"station" : "103 St - Corona Plaza_0", 	"delay" : 74625965.5068}, 	"geometry": { "type": "Point","coordinates": [-73.862700000000004, 40.749865]} }, 
{"type": "Feature", "properties": {"id" : 96, 	"station" : "28 St_1", 	"delay" : 74516656.2596}, 	"geometry": { "type": "Point","coordinates": [-73.984263999999996, 40.743070000000003]} }, 
{"type": "Feature", "properties": {"id" : 97, 	"station" : "96 St_0", 	"delay" : 74171566.4436}, 	"geometry": { "type": "Point","coordinates": [-73.972323000000003, 40.793919000000002]} }, 
{"type": "Feature", "properties": {"id" : 98, 	"station" : "Brooklyn Bridge - City Hall_0", 	"delay" : 73973166.3876}, 	"geometry": { "type": "Point","coordinates": [-74.004131000000001, 40.713065]} }, 
{"type": "Feature", "properties": {"id" : 99, 	"station" : "7 Av_2", 	"delay" : 73074193.4166}, 	"geometry": { "type": "Point","coordinates": [-73.980305000000001, 40.666271000000002]} }, 
{"type": "Feature", "properties": {"id" : 100, 	"station" : "Briarwood - Van Wyck Blvd_0", 	"delay" : 72182057.8155}, 	"geometry": { "type": "Point","coordinates": [-73.820573999999993, 40.709178999999999]} }, 
{"type": "Feature", "properties": {"id" : 101, 	"station" : "207 St_0", 	"delay" : 71969640.874}, 	"geometry": { "type": "Point","coordinates": [-73.918821999999992, 40.864621]} }, 
{"type": "Feature", "properties": {"id" : 102, 	"station" : "Pelham Pkwy_0", 	"delay" : 71687920.556}, 	"geometry": { "type": "Point","coordinates": [-73.867615000000001, 40.857191999999998]} }, 
{"type": "Feature", "properties": {"id" : 103, 	"station" : "Nostrand Av_1", 	"delay" : 71000339.244}, 	"geometry": { "type": "Point","coordinates": [-73.950426000000007, 40.680438000000002]} }, 
{"type": "Feature", "properties": {"id" : 104, 	"station" : "E 105 St_0", 	"delay" : 70927026.0077}, 	"geometry": { "type": "Point","coordinates": [-73.899484999999999, 40.650573000000001]} }, 
{"type": "Feature", "properties": {"id" : 105, 	"station" : "1 Av_0", 	"delay" : 70915133.2258}, 	"geometry": { "type": "Point","coordinates": [-73.981628000000001, 40.730953]} }, 
{"type": "Feature", "properties": {"id" : 106, 	"station" : "7 Av_1", 	"delay" : 70911118.2522}, 	"geometry": { "type": "Point","coordinates": [-73.972367000000006, 40.677050000000001]} }, 
{"type": "Feature", "properties": {"id" : 107, 	"station" : "176 St_0", 	"delay" : 70087970.8565}, 	"geometry": { "type": "Point","coordinates": [-73.911794, 40.848480000000002]} }, 
{"type": "Feature", "properties": {"id" : 108, 	"station" : "Broadway-Lafayette St_0", 	"delay" : 69833172.7074}, 	"geometry": { "type": "Point","coordinates": [-73.996204000000006, 40.725296999999998]} }, 
{"type": "Feature", "properties": {"id" : 109, 	"station" : "23 St_1", 	"delay" : 69705658.8261}, 	"geometry": { "type": "Point","coordinates": [-73.986598999999998, 40.739864000000004]} }, 
{"type": "Feature", "properties": {"id" : 110, 	"station" : "57 St - 7 Av_0", 	"delay" : 68725914.6397}, 	"geometry": { "type": "Point","coordinates": [-73.980657999999991, 40.764664000000003]} }, 
{"type": "Feature", "properties": {"id" : 111, 	"station" : "5 Av_0", 	"delay" : 68159070.566}, 	"geometry": { "type": "Point","coordinates": [-73.981963000000007, 40.753821000000002]} }, 
{"type": "Feature", "properties": {"id" : 112, 	"station" : "Morris Park_0", 	"delay" : 67979966.1819}, 	"geometry": { "type": "Point","coordinates": [-73.860495, 40.854364000000004]} }, 
{"type": "Feature", "properties": {"id" : 113, 	"station" : "86 St_4", 	"delay" : 66665551.5092}, 	"geometry": { "type": "Point","coordinates": [-73.951786999999996, 40.777890999999997]} }, 
{"type": "Feature", "properties": {"id" : 114, 	"station" : "77 St_1", 	"delay" : 66514247.6647}, 	"geometry": { "type": "Point","coordinates": [-74.025509999999997, 40.629742]} }, 
{"type": "Feature", "properties": {"id" : 115, 	"station" : "42 St - Bryant Pk_0", 	"delay" : 66352069.174}, 	"geometry": { "type": "Point","coordinates": [-73.984568999999993, 40.754221999999999]} }, 
{"type": "Feature", "properties": {"id" : 116, 	"station" : "Grand St_1", 	"delay" : 66172336.5599}, 	"geometry": { "type": "Point","coordinates": [-73.940669999999997, 40.711925999999998]} }, 
{"type": "Feature", "properties": {"id" : 117, 	"station" : "Fordham Rd_1", 	"delay" : 66166946.9476}, 	"geometry": { "type": "Point","coordinates": [-73.897749000000005, 40.861296000000003]} }, 
{"type": "Feature", "properties": {"id" : 118, 	"station" : "Canal St_2", 	"delay" : 66156570.768}, 	"geometry": { "type": "Point","coordinates": [-74.005229, 40.720824]} }, 
{"type": "Feature", "properties": {"id" : 119, 	"station" : "183 St_0", 	"delay" : 65686047.8133}, 	"geometry": { "type": "Point","coordinates": [-73.903879000000003, 40.858407]} }, 
{"type": "Feature", "properties": {"id" : 120, 	"station" : "175 St_0", 	"delay" : 65685358.1106}, 	"geometry": { "type": "Point","coordinates": [-73.939704000000006, 40.847390999999995]} }, 
{"type": "Feature", "properties": {"id" : 121, 	"station" : "Forest Av_0", 	"delay" : 65424467.9643}, 	"geometry": { "type": "Point","coordinates": [-73.903076999999996, 40.704422999999998]} }, 
{"type": "Feature", "properties": {"id" : 122, 	"station" : "Howard Beach - JFK Airport_0", 	"delay" : 65094073.432}, 	"geometry": { "type": "Point","coordinates": [-73.830301000000006, 40.660476000000003]} }, 
{"type": "Feature", "properties": {"id" : 123, 	"station" : "Aqueduct Racetrack_0", 	"delay" : 65019118.7473}, 	"geometry": { "type": "Point","coordinates": [-73.834057999999999, 40.668234000000005]} }, 
{"type": "Feature", "properties": {"id" : 124, 	"station" : "Grand Central - 42 St_1", 	"delay" : 64389332.9971}, 	"geometry": { "type": "Point","coordinates": [-73.979189000000005, 40.752769000000001]} }, 
{"type": "Feature", "properties": {"id" : 125, 	"station" : "Castle Hill Av_0", 	"delay" : 64322769.5961}, 	"geometry": { "type": "Point","coordinates": [-73.851221999999993, 40.834254999999999]} }, 
{"type": "Feature", "properties": {"id" : 126, 	"station" : "111 St_0", 	"delay" : 63953615.9848}, 	"geometry": { "type": "Point","coordinates": [-73.855333999999999, 40.751730000000002]} }, 
{"type": "Feature", "properties": {"id" : 127, 	"station" : "Allerton Av_0", 	"delay" : 63176939.3169}, 	"geometry": { "type": "Point","coordinates": [-73.867351999999997, 40.865462000000001]} }, 
{"type": "Feature", "properties": {"id" : 128, 	"station" : "Montrose Av_0", 	"delay" : 62702519.3069}, 	"geometry": { "type": "Point","coordinates": [-73.939850000000007, 40.707739000000004]} }, 
{"type": "Feature", "properties": {"id" : 129, 	"station" : "Utica Av_0", 	"delay" : 62383820.4525}, 	"geometry": { "type": "Point","coordinates": [-73.930728999999999, 40.679364]} }, 
{"type": "Feature", "properties": {"id" : 130, 	"station" : "Morgan Av_0", 	"delay" : 60821188.7342}, 	"geometry": { "type": "Point","coordinates": [-73.933146999999991, 40.706152000000003]} }, 
{"type": "Feature", "properties": {"id" : 131, 	"station" : "Spring St_1", 	"delay" : 60265761.2746}, 	"geometry": { "type": "Point","coordinates": [-74.003738999999996, 40.726227000000002]} }, 
{"type": "Feature", "properties": {"id" : 132, 	"station" : "Court Sq_0", 	"delay" : 60166735.7594}, 	"geometry": { "type": "Point","coordinates": [-73.945273999999998, 40.747317250000002]} }, 
{"type": "Feature", "properties": {"id" : 133, 	"station" : "Canal St_0", 	"delay" : 59872507.0878}, 	"geometry": { "type": "Point","coordinates": [-74.000712777800004, 40.718792999999998]} }, 
{"type": "Feature", "properties": {"id" : 134, 	"station" : "7 Av_0", 	"delay" : 59863895.0316}, 	"geometry": { "type": "Point","coordinates": [-73.981637000000006, 40.762861999999998]} }, 
{"type": "Feature", "properties": {"id" : 135, 	"station" : "Sutphin Blvd_0", 	"delay" : 59660095.0884}, 	"geometry": { "type": "Point","coordinates": [-73.810707999999991, 40.705459999999995]} }, 
{"type": "Feature", "properties": {"id" : 136, 	"station" : "15 St - Prospect Park_0", 	"delay" : 59581102.5116}, 	"geometry": { "type": "Point","coordinates": [-73.979493000000005, 40.660365000000006]} }, 
{"type": "Feature", "properties": {"id" : 137, 	"station" : "215 St_0", 	"delay" : 59493158.631}, 	"geometry": { "type": "Point","coordinates": [-73.915278999999998, 40.869444000000001]} }, 
{"type": "Feature", "properties": {"id" : 138, 	"station" : "Newkirk Av_0", 	"delay" : 58781480.1501}, 	"geometry": { "type": "Point","coordinates": [-73.948410999999993, 40.639966999999999]} }, 
{"type": "Feature", "properties": {"id" : 139, 	"station" : "DeKalb Av_1", 	"delay" : 57057072.8946}, 	"geometry": { "type": "Point","coordinates": [-73.918424999999999, 40.703811000000002]} }, 
{"type": "Feature", "properties": {"id" : 140, 	"station" : "DeKalb Av_0", 	"delay" : 56599245.5353}, 	"geometry": { "type": "Point","coordinates": [-73.981824000000003, 40.690635]} }, 
{"type": "Feature", "properties": {"id" : 141, 	"station" : "Alabama Av_0", 	"delay" : 56494046.2682}, 	"geometry": { "type": "Point","coordinates": [-73.898654000000008, 40.676991999999998]} }, 
{"type": "Feature", "properties": {"id" : 142, 	"station" : "Jefferson St_0", 	"delay" : 55145209.1297}, 	"geometry": { "type": "Point","coordinates": [-73.922912999999994, 40.706606999999998]} }, 
{"type": "Feature", "properties": {"id" : 143, 	"station" : "Bowling Green_0", 	"delay" : 54876524.053}, 	"geometry": { "type": "Point","coordinates": [-74.014065000000002, 40.704816999999998]} }, 
{"type": "Feature", "properties": {"id" : 144, 	"station" : "Burke Av_0", 	"delay" : 54396088.1947}, 	"geometry": { "type": "Point","coordinates": [-73.867164000000002, 40.871355999999999]} }, 
{"type": "Feature", "properties": {"id" : 145, 	"station" : "181 St_1", 	"delay" : 53332165.1668}, 	"geometry": { "type": "Point","coordinates": [-73.937968999999995, 40.851694999999999]} }, 
{"type": "Feature", "properties": {"id" : 146, 	"station" : "Crown Hts - Utica Av_0", 	"delay" : 53269044.1815}, 	"geometry": { "type": "Point","coordinates": [-73.932942000000011, 40.668896999999994]} }, 
{"type": "Feature", "properties": {"id" : 147, 	"station" : "Fordham Rd_0", 	"delay" : 52926545.5928}, 	"geometry": { "type": "Point","coordinates": [-73.901033999999996, 40.862803]} }, 
{"type": "Feature", "properties": {"id" : 148, 	"station" : "28 St_2", 	"delay" : 52686668.6251}, 	"geometry": { "type": "Point","coordinates": [-73.988691000000003, 40.745494000000001]} }, 
{"type": "Feature", "properties": {"id" : 149, 	"station" : "Brook Av_0", 	"delay" : 52435502.302}, 	"geometry": { "type": "Point","coordinates": [-73.919240000000002, 40.807565999999994]} }, 
{"type": "Feature", "properties": {"id" : 150, 	"station" : "Broad Channel_0", 	"delay" : 52426858.4638}, 	"geometry": { "type": "Point","coordinates": [-73.815924999999993, 40.608381999999999]} }, 
{"type": "Feature", "properties": {"id" : 151, 	"station" : "68 St - Hunter College_0", 	"delay" : 52316992.2301}, 	"geometry": { "type": "Point","coordinates": [-73.96387, 40.768141]} }, 
{"type": "Feature", "properties": {"id" : 152, 	"station" : "Borough Hall_0", 	"delay" : 52166897.9996}, 	"geometry": { "type": "Point","coordinates": [-73.990089799999993, 40.692729999999997]} }, 
{"type": "Feature", "properties": {"id" : 153, 	"station" : "Lexington Av/59 St_0", 	"delay" : 50695944.0892}, 	"geometry": { "type": "Point","coordinates": [-73.967258000000001, 40.762659999999997]} }, 
{"type": "Feature", "properties": {"id" : 154, 	"station" : "Astor Pl_0", 	"delay" : 50643857.0724}, 	"geometry": { "type": "Point","coordinates": [-73.991069999999993, 40.730053999999996]} }, 
{"type": "Feature", "properties": {"id" : 155, 	"station" : "Pelham Pkwy_1", 	"delay" : 50148824.8804}, 	"geometry": { "type": "Point","coordinates": [-73.855358999999993, 40.858984999999997]} }, 
{"type": "Feature", "properties": {"id" : 156, 	"station" : "Zerega Av_0", 	"delay" : 49896934.9854}, 	"geometry": { "type": "Point","coordinates": [-73.847036000000003, 40.836488000000003]} }, 
{"type": "Feature", "properties": {"id" : 157, 	"station" : "Marble Hill - 225 St_0", 	"delay" : 49664748.7902}, 	"geometry": { "type": "Point","coordinates": [-73.909831000000011, 40.874561]} }, 
{"type": "Feature", "properties": {"id" : 158, 	"station" : "14 St_0", 	"delay" : 49650207.5421}, 	"geometry": { "type": "Point","coordinates": [-74.000201000000004, 40.737825999999998]} }, 
{"type": "Feature", "properties": {"id" : 159, 	"station" : "104 St_0", 	"delay" : 49284362.0102}, 	"geometry": { "type": "Point","coordinates": [-73.837682999999998, 40.681711]} }, 
{"type": "Feature", "properties": {"id" : 160, 	"station" : "Wall St_0", 	"delay" : 49145746.8566}, 	"geometry": { "type": "Point","coordinates": [-74.009100000000004, 40.706821000000005]} }, 
{"type": "Feature", "properties": {"id" : 161, 	"station" : "Jamaica - Van Wyck_0", 	"delay" : 49009017.1332}, 	"geometry": { "type": "Point","coordinates": [-73.816858999999994, 40.702565999999997]} }, 
{"type": "Feature", "properties": {"id" : 162, 	"station" : "Kingsbridge Rd_1", 	"delay" : 48715906.1283}, 	"geometry": { "type": "Point","coordinates": [-73.893508999999995, 40.866978000000003]} }, 
{"type": "Feature", "properties": {"id" : 163, 	"station" : "Woodside - 61 St_0", 	"delay" : 47859069.7782}, 	"geometry": { "type": "Point","coordinates": [-73.902984000000004, 40.745629999999998]} }, 
{"type": "Feature", "properties": {"id" : 164, 	"station" : "Gun Hill Rd_0", 	"delay" : 47391975.7254}, 	"geometry": { "type": "Point","coordinates": [-73.866256000000007, 40.877850000000002]} }, 
{"type": "Feature", "properties": {"id" : 165, 	"station" : "14 St_1", 	"delay" : 46860151.5323}, 	"geometry": { "type": "Point","coordinates": [-74.001689999999996, 40.740893]} }, 
{"type": "Feature", "properties": {"id" : 166, 	"station" : "Crescent St_0", 	"delay" : 46612569.1915}, 	"geometry": { "type": "Point","coordinates": [-73.873784999999998, 40.683194]} }, 
{"type": "Feature", "properties": {"id" : 167, 	"station" : "231 St_0", 	"delay" : 46499175.3832}, 	"geometry": { "type": "Point","coordinates": [-73.904833999999994, 40.878855999999999]} }, 
{"type": "Feature", "properties": {"id" : 168, 	"station" : "Jamaica Center - Parsons/Archer_0", 	"delay" : 46459174.3088}, 	"geometry": { "type": "Point","coordinates": [-73.801108999999997, 40.702146999999997]} }, 
{"type": "Feature", "properties": {"id" : 169, 	"station" : "Cypress Av_0", 	"delay" : 46418189.4835}, 	"geometry": { "type": "Point","coordinates": [-73.914042000000009, 40.805368000000001]} }, 
{"type": "Feature", "properties": {"id" : 170, 	"station" : "Delancey St_0", 	"delay" : 46212960.6307}, 	"geometry": { "type": "Point","coordinates": [-73.988113999999996, 40.718610999999996]} }, 
{"type": "Feature", "properties": {"id" : 171, 	"station" : "Halsey St_1", 	"delay" : 45427011.8353}, 	"geometry": { "type": "Point","coordinates": [-73.904083999999997, 40.695602000000001]} }, 
{"type": "Feature", "properties": {"id" : 172, 	"station" : "Fort Hamilton Pkwy_1", 	"delay" : 44509939.1512}, 	"geometry": { "type": "Point","coordinates": [-73.975775999999996, 40.650782]} }, 
{"type": "Feature", "properties": {"id" : 173, 	"station" : "Woodhaven Blvd_1", 	"delay" : 44045622.782}, 	"geometry": { "type": "Point","coordinates": [-73.851575999999994, 40.693878999999995]} }, 
{"type": "Feature", "properties": {"id" : 174, 	"station" : "E 149 St_0", 	"delay" : 43280774.3537}, 	"geometry": { "type": "Point","coordinates": [-73.904098000000005, 40.812117999999998]} }, 
{"type": "Feature", "properties": {"id" : 175, 	"station" : "Sutter Av - Rutland Rd_0", 	"delay" : 43160896.1745}, 	"geometry": { "type": "Point","coordinates": [-73.922609999999992, 40.664716999999996]} }, 
{"type": "Feature", "properties": {"id" : 176, 	"station" : "E 143 St - St Mary's St_0", 	"delay" : 42777871.9113}, 	"geometry": { "type": "Point","coordinates": [-73.907657, 40.808719000000004]} }, 
{"type": "Feature", "properties": {"id" : 177, 	"station" : "77 St_0", 	"delay" : 42569614.1477}, 	"geometry": { "type": "Point","coordinates": [-73.959873999999999, 40.773620000000001]} }, 
{"type": "Feature", "properties": {"id" : 178, 	"station" : "50 St_1", 	"delay" : 42091132.3402}, 	"geometry": { "type": "Point","coordinates": [-73.985984000000002, 40.762456]} }, 
{"type": "Feature", "properties": {"id" : 179, 	"station" : "New Utrecht Av_0", 	"delay" : 41931859.6295}, 	"geometry": { "type": "Point","coordinates": [-73.996352999999999, 40.624842000000001]} }, 
{"type": "Feature", "properties": {"id" : 180, 	"station" : "23 St_4", 	"delay" : 41382495.0139}, 	"geometry": { "type": "Point","coordinates": [-73.989343999999988, 40.741303000000002]} }, 
{"type": "Feature", "properties": {"id" : 181, 	"station" : "49 St_0", 	"delay" : 40957748.962}, 	"geometry": { "type": "Point","coordinates": [-73.984138999999999, 40.759900999999999]} }, 
{"type": "Feature", "properties": {"id" : 182, 	"station" : "219 St_0", 	"delay" : 40889091.3955}, 	"geometry": { "type": "Point","coordinates": [-73.862633000000002, 40.883895000000003]} }, 
{"type": "Feature", "properties": {"id" : 183, 	"station" : "6 Av_0", 	"delay" : 40566034.59}, 	"geometry": { "type": "Point","coordinates": [-73.996786, 40.737334999999995]} }, 
{"type": "Feature", "properties": {"id" : 184, 	"station" : "96 St_1", 	"delay" : 40516257.2727}, 	"geometry": { "type": "Point","coordinates": [-73.951070000000001, 40.785671999999998]} }, 
{"type": "Feature", "properties": {"id" : 185, 	"station" : "Metropolitan Av_0", 	"delay" : 40495295.781}, 	"geometry": { "type": "Point","coordinates": [-73.951418000000004, 40.712792]} }, 
{"type": "Feature", "properties": {"id" : 186, 	"station" : "2 Av_0", 	"delay" : 40249135.0755}, 	"geometry": { "type": "Point","coordinates": [-73.989937999999995, 40.723402]} }, 
{"type": "Feature", "properties": {"id" : 187, 	"station" : "Gun Hill Rd_1", 	"delay" : 40234535.8762}, 	"geometry": { "type": "Point","coordinates": [-73.846384, 40.869526]} }, 
{"type": "Feature", "properties": {"id" : 188, 	"station" : "Broad St_0", 	"delay" : 39954405.8411}, 	"geometry": { "type": "Point","coordinates": [-74.011056000000011, 40.706476000000002]} }, 
{"type": "Feature", "properties": {"id" : 189, 	"station" : "Longwood Av_0", 	"delay" : 39925720.2083}, 	"geometry": { "type": "Point","coordinates": [-73.896434999999997, 40.816103999999996]} }, 
{"type": "Feature", "properties": {"id" : 190, 	"station" : "Sheepshead Bay_0", 	"delay" : 39656871.6132}, 	"geometry": { "type": "Point","coordinates": [-73.954155, 40.586896000000003]} }, 
{"type": "Feature", "properties": {"id" : 191, 	"station" : "High St_0", 	"delay" : 39153933.7503}, 	"geometry": { "type": "Point","coordinates": [-73.990531000000004, 40.699337]} }, 
{"type": "Feature", "properties": {"id" : 192, 	"station" : "67 Av_0", 	"delay" : 39108244.258}, 	"geometry": { "type": "Point","coordinates": [-73.852718999999993, 40.726523]} }, 
{"type": "Feature", "properties": {"id" : 193, 	"station" : "Essex St_0", 	"delay" : 38814251.2265}, 	"geometry": { "type": "Point","coordinates": [-73.987437, 40.718315000000004]} }, 
{"type": "Feature", "properties": {"id" : 194, 	"station" : "Whitehall St_0", 	"delay" : 38805648.0008}, 	"geometry": { "type": "Point","coordinates": [-74.012993999999992, 40.703086999999996]} }, 
{"type": "Feature", "properties": {"id" : 195, 	"station" : "Woodhaven Blvd_0", 	"delay" : 38770272.9331}, 	"geometry": { "type": "Point","coordinates": [-73.869229000000004, 40.733105999999999]} }, 
{"type": "Feature", "properties": {"id" : 196, 	"station" : "Church Av_2", 	"delay" : 38483458.7756}, 	"geometry": { "type": "Point","coordinates": [-73.979678000000007, 40.644040999999994]} }, 
{"type": "Feature", "properties": {"id" : 197, 	"station" : "63 Dr - Rego Park_0", 	"delay" : 38477002.8585}, 	"geometry": { "type": "Point","coordinates": [-73.861604, 40.729846000000002]} }, 
{"type": "Feature", "properties": {"id" : 198, 	"station" : "66 St - Lincoln Center_0", 	"delay" : 38388470.3035}, 	"geometry": { "type": "Point","coordinates": [-73.982208999999997, 40.773440000000001]} }, 
{"type": "Feature", "properties": {"id" : 199, 	"station" : "Kingsbridge Rd_0", 	"delay" : 38147450.6376}, 	"geometry": { "type": "Point","coordinates": [-73.897173999999993, 40.867759999999997]} }, 
{"type": "Feature", "properties": {"id" : 200, 	"station" : "Roosevelt Island_0", 	"delay" : 38083510.5982}, 	"geometry": { "type": "Point","coordinates": [-73.95326, 40.759145000000004]} }, 
{"type": "Feature", "properties": {"id" : 201, 	"station" : "62 St_0", 	"delay" : 38007227.6915}, 	"geometry": { "type": "Point","coordinates": [-73.996894999999995, 40.626472]} }, 
{"type": "Feature", "properties": {"id" : 202, 	"station" : "Grand Av - Newtown_0", 	"delay" : 37851142.9645}, 	"geometry": { "type": "Point","coordinates": [-73.877223000000001, 40.737015]} }, 
{"type": "Feature", "properties": {"id" : 203, 	"station" : "Beach 67 St_0", 	"delay" : 37800983.8584}, 	"geometry": { "type": "Point","coordinates": [-73.796924000000004, 40.590927000000001]} }, 
{"type": "Feature", "properties": {"id" : 204, 	"station" : "Saratoga Av_0", 	"delay" : 37756509.0567}, 	"geometry": { "type": "Point","coordinates": [-73.916326999999995, 40.661453000000002]} }, 
{"type": "Feature", "properties": {"id" : 205, 	"station" : "Fresh Pond Rd_0", 	"delay" : 37463176.5834}, 	"geometry": { "type": "Point","coordinates": [-73.895876999999999, 40.706185999999995]} }, 
{"type": "Feature", "properties": {"id" : 206, 	"station" : "Bedford - Nostrand Avs_0", 	"delay" : 37439472.3882}, 	"geometry": { "type": "Point","coordinates": [-73.953521999999992, 40.689627000000002]} }, 
{"type": "Feature", "properties": {"id" : 207, 	"station" : "71 St_0", 	"delay" : 37261052.3136}, 	"geometry": { "type": "Point","coordinates": [-73.998863999999998, 40.619589000000005]} }, 
{"type": "Feature", "properties": {"id" : 208, 	"station" : "57 St_0", 	"delay" : 37260115.6167}, 	"geometry": { "type": "Point","coordinates": [-73.977450000000005, 40.763971999999995]} }, 
{"type": "Feature", "properties": {"id" : 209, 	"station" : "Greenpoint Av_0", 	"delay" : 36966424.8879}, 	"geometry": { "type": "Point","coordinates": [-73.954448999999997, 40.731352000000001]} }, 
{"type": "Feature", "properties": {"id" : 210, 	"station" : "23 St_3", 	"delay" : 36598488.0568}, 	"geometry": { "type": "Point","coordinates": [-73.992820999999992, 40.742878000000005]} }, 
{"type": "Feature", "properties": {"id" : 211, 	"station" : "Bergen St_1", 	"delay" : 36396811.333}, 	"geometry": { "type": "Point","coordinates": [-73.990861999999993, 40.686145000000003]} }, 
{"type": "Feature", "properties": {"id" : 212, 	"station" : "Astoria - Ditmars Blvd_0", 	"delay" : 36327079.2446}, 	"geometry": { "type": "Point","coordinates": [-73.912033999999991, 40.775036]} }, 
{"type": "Feature", "properties": {"id" : 213, 	"station" : "Junius St_0", 	"delay" : 35842143.1579}, 	"geometry": { "type": "Point","coordinates": [-73.902446999999995, 40.663515000000004]} }, 
{"type": "Feature", "properties": {"id" : 214, 	"station" : "Nassau Av_0", 	"delay" : 35824433.792}, 	"geometry": { "type": "Point","coordinates": [-73.951277000000005, 40.724634999999999]} }, 
{"type": "Feature", "properties": {"id" : 215, 	"station" : "Westchester Sq - E Tremont Av_0", 	"delay" : 35515805.5009}, 	"geometry": { "type": "Point","coordinates": [-73.842951999999997, 40.839891999999999]} }, 
{"type": "Feature", "properties": {"id" : 216, 	"station" : "103 St_0", 	"delay" : 35444635.9419}, 	"geometry": { "type": "Point","coordinates": [-73.968378999999999, 40.799446000000003]} }, 
{"type": "Feature", "properties": {"id" : 217, 	"station" : "79 St_1", 	"delay" : 35028828.3376}, 	"geometry": { "type": "Point","coordinates": [-74.000609999999995, 40.613500999999999]} }, 
{"type": "Feature", "properties": {"id" : 218, 	"station" : "86 St_5", 	"delay" : 34991326.9324}, 	"geometry": { "type": "Point","coordinates": [-74.028397999999996, 40.622686999999999]} }, 
{"type": "Feature", "properties": {"id" : 219, 	"station" : "Chambers St_0", 	"delay" : 34983062.7543}, 	"geometry": { "type": "Point","coordinates": [-74.009265999999997, 40.715478000000004]} }, 
{"type": "Feature", "properties": {"id" : 220, 	"station" : "Court St_0", 	"delay" : 34756021.9484}, 	"geometry": { "type": "Point","coordinates": [-73.991776999999999, 40.694099999999999]} }, 
{"type": "Feature", "properties": {"id" : 221, 	"station" : "50 St_0", 	"delay" : 34617071.0712}, 	"geometry": { "type": "Point","coordinates": [-73.983848999999992, 40.761728000000005]} }, 
{"type": "Feature", "properties": {"id" : 222, 	"station" : "40 St_0", 	"delay" : 34428341.6556}, 	"geometry": { "type": "Point","coordinates": [-73.924016000000009, 40.743780999999998]} }, 
{"type": "Feature", "properties": {"id" : 223, 	"station" : "111 St_1", 	"delay" : 34289742.9736}, 	"geometry": { "type": "Point","coordinates": [-73.832162999999994, 40.684331]} }, 
{"type": "Feature", "properties": {"id" : 224, 	"station" : "East Broadway_0", 	"delay" : 34111285.4211}, 	"geometry": { "type": "Point","coordinates": [-73.990172999999999, 40.713715000000001]} }, 
{"type": "Feature", "properties": {"id" : 225, 	"station" : "Myrtle - Willoughby Avs_0", 	"delay" : 34079375.3731}, 	"geometry": { "type": "Point","coordinates": [-73.949045999999996, 40.694567999999997]} }, 
{"type": "Feature", "properties": {"id" : 226, 	"station" : "225 St_0", 	"delay" : 34073514.691}, 	"geometry": { "type": "Point","coordinates": [-73.860341000000005, 40.888021999999999]} }, 
{"type": "Feature", "properties": {"id" : 227, 	"station" : "Chambers St_2", 	"delay" : 34005200.2353}, 	"geometry": { "type": "Point","coordinates": [-74.003400999999997, 40.713242999999999]} }, 
{"type": "Feature", "properties": {"id" : 228, 	"station" : "Chambers St_1", 	"delay" : 33883655.5128}, 	"geometry": { "type": "Point","coordinates": [-74.008584999999997, 40.714110999999995]} }, 
{"type": "Feature", "properties": {"id" : 229, 	"station" : "Clinton - Washington Avs_1", 	"delay" : 33654722.8835}, 	"geometry": { "type": "Point","coordinates": [-73.966839000000007, 40.688088999999998]} }, 
{"type": "Feature", "properties": {"id" : 230, 	"station" : "190 St_0", 	"delay" : 33499686.8625}, 	"geometry": { "type": "Point","coordinates": [-73.934179999999998, 40.859021999999996]} }, 
{"type": "Feature", "properties": {"id" : 231, 	"station" : "9 St_0", 	"delay" : 33416083.5288}, 	"geometry": { "type": "Point","coordinates": [-73.988302000000004, 40.670846999999995]} }, 
{"type": "Feature", "properties": {"id" : 232, 	"station" : "18 Av_2", 	"delay" : 33226669.1534}, 	"geometry": { "type": "Point","coordinates": [-73.990414000000001, 40.620671000000002]} }, 
{"type": "Feature", "properties": {"id" : 233, 	"station" : "Classon Av_0", 	"delay" : 33008107.8532}, 	"geometry": { "type": "Point","coordinates": [-73.960070000000002, 40.688873000000001]} }, 
{"type": "Feature", "properties": {"id" : 234, 	"station" : "Grand St_0", 	"delay" : 32770850.9779}, 	"geometry": { "type": "Point","coordinates": [-73.993752999999998, 40.718266999999997]} }, 
{"type": "Feature", "properties": {"id" : 235, 	"station" : "Canarsie - Rockaway Pkwy_0", 	"delay" : 31744278.8079}, 	"geometry": { "type": "Point","coordinates": [-73.901849999999996, 40.646653999999998]} }, 
{"type": "Feature", "properties": {"id" : 236, 	"station" : "Wilson Av_0", 	"delay" : 31655976.0776}, 	"geometry": { "type": "Point","coordinates": [-73.904045999999994, 40.688763999999999]} }, 
{"type": "Feature", "properties": {"id" : 237, 	"station" : "21 St_0", 	"delay" : 31485108.9637}, 	"geometry": { "type": "Point","coordinates": [-73.949724000000003, 40.744064999999999]} }, 
{"type": "Feature", "properties": {"id" : 238, 	"station" : "33 St_1", 	"delay" : 31190254.8372}, 	"geometry": { "type": "Point","coordinates": [-73.930996999999991, 40.744587000000003]} }, 
{"type": "Feature", "properties": {"id" : 239, 	"station" : "Bedford Park Blvd_0", 	"delay" : 31092839.0746}, 	"geometry": { "type": "Point","coordinates": [-73.887138000000007, 40.873244]} }, 
{"type": "Feature", "properties": {"id" : 240, 	"station" : "86 St_0", 	"delay" : 30399155.6827}, 	"geometry": { "type": "Point","coordinates": [-73.976218000000003, 40.788643999999998]} }, 
{"type": "Feature", "properties": {"id" : 241, 	"station" : "Beach 60 St_0", 	"delay" : 30325659.1731}, 	"geometry": { "type": "Point","coordinates": [-73.788522, 40.592374]} }, 
{"type": "Feature", "properties": {"id" : 242, 	"station" : "23 St_2", 	"delay" : 30222868.7461}, 	"geometry": { "type": "Point","coordinates": [-73.998041000000001, 40.745905999999998]} }, 
{"type": "Feature", "properties": {"id" : 243, 	"station" : "28 St_0", 	"delay" : 30176901.9196}, 	"geometry": { "type": "Point","coordinates": [-73.993364999999997, 40.747215000000004]} }, 
{"type": "Feature", "properties": {"id" : 244, 	"station" : "85 St - Forest Pkwy_0", 	"delay" : 30117362.6649}, 	"geometry": { "type": "Point","coordinates": [-73.860010000000003, 40.692434999999996]} }, 
{"type": "Feature", "properties": {"id" : 245, 	"station" : "Avenue U_2", 	"delay" : 29992411.7753}, 	"geometry": { "type": "Point","coordinates": [-73.955928999999998, 40.599299999999999]} }, 
{"type": "Feature", "properties": {"id" : 246, 	"station" : "18 Av_0", 	"delay" : 29982151.8549}, 	"geometry": { "type": "Point","coordinates": [-74.001735999999994, 40.607953999999999]} }, 
{"type": "Feature", "properties": {"id" : 247, 	"station" : "103 St_1", 	"delay" : 29866813.5809}, 	"geometry": { "type": "Point","coordinates": [-73.947478000000004, 40.790599999999998]} }, 
{"type": "Feature", "properties": {"id" : 248, 	"station" : "Carroll St_0", 	"delay" : 29846351.97}, 	"geometry": { "type": "Point","coordinates": [-73.995047999999997, 40.680303000000002]} }, 
{"type": "Feature", "properties": {"id" : 249, 	"station" : "8 Av_1", 	"delay" : 29726345.9533}, 	"geometry": { "type": "Point","coordinates": [-74.011718999999999, 40.635064]} }, 
{"type": "Feature", "properties": {"id" : 250, 	"station" : "Flushing Av_0", 	"delay" : 29695433.6359}, 	"geometry": { "type": "Point","coordinates": [-73.950233999999995, 40.700377000000003]} }, 
{"type": "Feature", "properties": {"id" : 251, 	"station" : "Beverley Rd_0", 	"delay" : 29307495.2186}, 	"geometry": { "type": "Point","coordinates": [-73.964492000000007, 40.644030999999998]} }, 
{"type": "Feature", "properties": {"id" : 252, 	"station" : "Atlantic Av_0", 	"delay" : 29288165.1676}, 	"geometry": { "type": "Point","coordinates": [-73.903097000000002, 40.675345]} }, 
{"type": "Feature", "properties": {"id" : 253, 	"station" : "Ditmas Av_0", 	"delay" : 29274264.7634}, 	"geometry": { "type": "Point","coordinates": [-73.978172000000001, 40.636119000000001]} }, 
{"type": "Feature", "properties": {"id" : 254, 	"station" : "Sutter Av_0", 	"delay" : 29236458.5956}, 	"geometry": { "type": "Point","coordinates": [-73.901974999999993, 40.669367000000001]} }, 
{"type": "Feature", "properties": {"id" : 255, 	"station" : "Fulton St_2", 	"delay" : 29186405.0116}, 	"geometry": { "type": "Point","coordinates": [-73.975375, 40.687119000000003]} }, 
{"type": "Feature", "properties": {"id" : 256, 	"station" : "Broadway_0", 	"delay" : 29173475.674}, 	"geometry": { "type": "Point","coordinates": [-73.950307999999993, 40.706091999999998]} }, 
{"type": "Feature", "properties": {"id" : 257, 	"station" : "18 St_0", 	"delay" : 29149097.5652}, 	"geometry": { "type": "Point","coordinates": [-73.997870999999989, 40.741040000000005]} }, 
{"type": "Feature", "properties": {"id" : 258, 	"station" : "138 St - Grand Concourse_0", 	"delay" : 28992413.4404}, 	"geometry": { "type": "Point","coordinates": [-73.929849000000004, 40.813223999999998]} }, 
{"type": "Feature", "properties": {"id" : 259, 	"station" : "21 St - Queensbridge_0", 	"delay" : 28882254.3755}, 	"geometry": { "type": "Point","coordinates": [-73.942836, 40.754203000000004]} }, 
{"type": "Feature", "properties": {"id" : 260, 	"station" : "135 St_1", 	"delay" : 28850459.5604}, 	"geometry": { "type": "Point","coordinates": [-73.947648999999998, 40.817894000000003]} }, 
{"type": "Feature", "properties": {"id" : 261, 	"station" : "8 St - NYU_0", 	"delay" : 28611723.6998}, 	"geometry": { "type": "Point","coordinates": [-73.992629000000008, 40.730328]} }, 
{"type": "Feature", "properties": {"id" : 262, 	"station" : "Pennsylvania Av_0", 	"delay" : 28590212.6585}, 	"geometry": { "type": "Point","coordinates": [-73.894894999999991, 40.664634999999997]} }, 
{"type": "Feature", "properties": {"id" : 263, 	"station" : "Elmhurst Av_0", 	"delay" : 28558694.7218}, 	"geometry": { "type": "Point","coordinates": [-73.882017000000005, 40.742453999999995]} }, 
{"type": "Feature", "properties": {"id" : 264, 	"station" : "20 Av_1", 	"delay" : 28430706.2073}, 	"geometry": { "type": "Point","coordinates": [-73.985026000000005, 40.61741]} }, 
{"type": "Feature", "properties": {"id" : 265, 	"station" : "Canal St_1", 	"delay" : 28402689.0081}, 	"geometry": { "type": "Point","coordinates": [-74.006276999999997, 40.722853999999998]} }, 
{"type": "Feature", "properties": {"id" : 266, 	"station" : "Cathedral Pkwy_0", 	"delay" : 28353548.0158}, 	"geometry": { "type": "Point","coordinates": [-73.966847000000001, 40.803967]} }, 
{"type": "Feature", "properties": {"id" : 267, 	"station" : "Avenue M_0", 	"delay" : 28017639.0849}, 	"geometry": { "type": "Point","coordinates": [-73.959399000000005, 40.617618]} }, 
{"type": "Feature", "properties": {"id" : 268, 	"station" : "Bushwick Av - Aberdeen St_0", 	"delay" : 27924295.7609}, 	"geometry": { "type": "Point","coordinates": [-73.905248999999998, 40.682828999999998]} }, 
{"type": "Feature", "properties": {"id" : 269, 	"station" : "45 St_0", 	"delay" : 27910589.2238}, 	"geometry": { "type": "Point","coordinates": [-74.010006000000004, 40.648938999999999]} }, 
{"type": "Feature", "properties": {"id" : 270, 	"station" : "111 St_2", 	"delay" : 27775656.7144}, 	"geometry": { "type": "Point","coordinates": [-73.836344999999994, 40.697417999999999]} }, 
{"type": "Feature", "properties": {"id" : 271, 	"station" : "5 Av/59 St_0", 	"delay" : 27664642.1849}, 	"geometry": { "type": "Point","coordinates": [-73.973347000000004, 40.764811000000002]} }, 
{"type": "Feature", "properties": {"id" : 272, 	"station" : "104 St_1", 	"delay" : 27649327.214}, 	"geometry": { "type": "Point","coordinates": [-73.844329999999999, 40.695178000000006]} }, 
{"type": "Feature", "properties": {"id" : 273, 	"station" : "14 St_2", 	"delay" : 27588262.6637}, 	"geometry": { "type": "Point","coordinates": [-73.996208999999993, 40.738227999999999]} }, 
{"type": "Feature", "properties": {"id" : 274, 	"station" : "8 Av_0", 	"delay" : 27533730.9729}, 	"geometry": { "type": "Point","coordinates": [-74.002578, 40.739777000000004]} }, 
{"type": "Feature", "properties": {"id" : 275, 	"station" : "79 St_0", 	"delay" : 27443580.5923}, 	"geometry": { "type": "Point","coordinates": [-73.979917, 40.783934000000002]} }, 
{"type": "Feature", "properties": {"id" : 276, 	"station" : "135 St_0", 	"delay" : 27198881.3456}, 	"geometry": { "type": "Point","coordinates": [-73.940770000000001, 40.814228999999997]} }, 
{"type": "Feature", "properties": {"id" : 277, 	"station" : "23 St_0", 	"delay" : 27172633.0053}, 	"geometry": { "type": "Point","coordinates": [-73.995656999999994, 40.744081000000001]} }, 
{"type": "Feature", "properties": {"id" : 278, 	"station" : "York St_0", 	"delay" : 27025264.5821}, 	"geometry": { "type": "Point","coordinates": [-73.986750999999998, 40.701397]} }, 
{"type": "Feature", "properties": {"id" : 279, 	"station" : "Cortelyou Rd_0", 	"delay" : 26267351.4823}, 	"geometry": { "type": "Point","coordinates": [-73.963891000000004, 40.640927000000005]} }, 
{"type": "Feature", "properties": {"id" : 280, 	"station" : "Houston St_0", 	"delay" : 26255372.4076}, 	"geometry": { "type": "Point","coordinates": [-74.005367000000007, 40.728251]} }, 
{"type": "Feature", "properties": {"id" : 281, 	"station" : "96 St_3", 	"delay" : 26182087.8836}, 	"geometry": { "type": "Point","coordinates": [-73.947152000000003, 40.784317999999999]} }, 
{"type": "Feature", "properties": {"id" : 282, 	"station" : "Flatbush Av - Brooklyn College_0", 	"delay" : 26098059.0487}, 	"geometry": { "type": "Point","coordinates": [-73.947642000000002, 40.632835999999998]} }, 
{"type": "Feature", "properties": {"id" : 283, 	"station" : "Nevins St_0", 	"delay" : 26095917.185}, 	"geometry": { "type": "Point","coordinates": [-73.980491999999998, 40.688245999999999]} }, 
{"type": "Feature", "properties": {"id" : 284, 	"station" : "Bleecker St_0", 	"delay" : 26091758.845}, 	"geometry": { "type": "Point","coordinates": [-73.994658999999999, 40.725915000000001]} }, 
{"type": "Feature", "properties": {"id" : 285, 	"station" : "9 Av_0", 	"delay" : 25911976.8159}, 	"geometry": { "type": "Point","coordinates": [-73.994324000000006, 40.646291999999995]} }, 
{"type": "Feature", "properties": {"id" : 286, 	"station" : "Halsey St_0", 	"delay" : 25910444.0817}, 	"geometry": { "type": "Point","coordinates": [-73.916558999999992, 40.686370000000004]} }, 
{"type": "Feature", "properties": {"id" : 287, 	"station" : "Parkside Av_0", 	"delay" : 25760838.3098}, 	"geometry": { "type": "Point","coordinates": [-73.961494999999999, 40.655291999999996]} }, 
{"type": "Feature", "properties": {"id" : 288, 	"station" : "121 St_0", 	"delay" : 25582978.519}, 	"geometry": { "type": "Point","coordinates": [-73.828294, 40.700491999999997]} }, 
{"type": "Feature", "properties": {"id" : 289, 	"station" : "Kosciuszko St_0", 	"delay" : 25577512.7979}, 	"geometry": { "type": "Point","coordinates": [-73.928814000000003, 40.693342000000001]} }, 
{"type": "Feature", "properties": {"id" : 290, 	"station" : "Middletown Rd_0", 	"delay" : 25503006.3587}, 	"geometry": { "type": "Point","coordinates": [-73.836321999999996, 40.843862999999999]} }, 
{"type": "Feature", "properties": {"id" : 291, 	"station" : "Bedford Park Blvd - Lehman College_0", 	"delay" : 25477717.6766}, 	"geometry": { "type": "Point","coordinates": [-73.890063999999995, 40.873412000000002]} }, 
{"type": "Feature", "properties": {"id" : 292, 	"station" : "Rector St_0", 	"delay" : 25470415.5685}, 	"geometry": { "type": "Point","coordinates": [-74.013518399999995, 40.707337200000005]} }, 
{"type": "Feature", "properties": {"id" : 293, 	"station" : "Steinway St_0", 	"delay" : 25408578.19}, 	"geometry": { "type": "Point","coordinates": [-73.920740000000009, 40.756878999999998]} }, 
{"type": "Feature", "properties": {"id" : 294, 	"station" : "Neck Rd_0", 	"delay" : 25408203.4877}, 	"geometry": { "type": "Point","coordinates": [-73.955161000000004, 40.595246000000003]} }, 
{"type": "Feature", "properties": {"id" : 295, 	"station" : "46 St_0", 	"delay" : 25392147.1597}, 	"geometry": { "type": "Point","coordinates": [-73.918435000000002, 40.743132000000003]} }, 
{"type": "Feature", "properties": {"id" : 296, 	"station" : "75 Av_0", 	"delay" : 25358623.244}, 	"geometry": { "type": "Point","coordinates": [-73.837323999999995, 40.718330999999999]} }, 
{"type": "Feature", "properties": {"id" : 297, 	"station" : "Christopher St - Sheridan Sq_0", 	"delay" : 25146158.8884}, 	"geometry": { "type": "Point","coordinates": [-74.00290600000001, 40.733421999999997]} }, 
{"type": "Feature", "properties": {"id" : 298, 	"station" : "Bay Pkwy_2", 	"delay" : 25140602.3821}, 	"geometry": { "type": "Point","coordinates": [-73.981847999999999, 40.611815]} }, 
{"type": "Feature", "properties": {"id" : 299, 	"station" : "167 St_1", 	"delay" : 25104779.2696}, 	"geometry": { "type": "Point","coordinates": [-73.918440000000004, 40.833770999999999]} }, 
{"type": "Feature", "properties": {"id" : 300, 	"station" : "Prince St_0", 	"delay" : 25046912.6829}, 	"geometry": { "type": "Point","coordinates": [-73.997702000000004, 40.724328999999997]} }, 
{"type": "Feature", "properties": {"id" : 301, 	"station" : "116 St - Columbia University_0", 	"delay" : 24973267.5768}, 	"geometry": { "type": "Point","coordinates": [-73.964109999999991, 40.807721999999998]} }, 
{"type": "Feature", "properties": {"id" : 302, 	"station" : "233 St_0", 	"delay" : 24928421.9391}, 	"geometry": { "type": "Point","coordinates": [-73.857472999999999, 40.893192999999997]} }, 
{"type": "Feature", "properties": {"id" : 303, 	"station" : "Beach 44 St_0", 	"delay" : 24761699.585}, 	"geometry": { "type": "Point","coordinates": [-73.776013000000006, 40.592942999999998]} }, 
{"type": "Feature", "properties": {"id" : 304, 	"station" : "53 St_0", 	"delay" : 24533508.8927}, 	"geometry": { "type": "Point","coordinates": [-74.014033999999995, 40.645068999999999]} }, 
{"type": "Feature", "properties": {"id" : 305, 	"station" : "110 St_0", 	"delay" : 24226697.9773}, 	"geometry": { "type": "Point","coordinates": [-73.944249999999997, 40.795020000000001]} }, 
{"type": "Feature", "properties": {"id" : 306, 	"station" : "75 St_0", 	"delay" : 24189719.3263}, 	"geometry": { "type": "Point","coordinates": [-73.867138999999995, 40.691324000000002]} }, 
{"type": "Feature", "properties": {"id" : 307, 	"station" : "Myrtle Av_0", 	"delay" : 24137757.9335}, 	"geometry": { "type": "Point","coordinates": [-73.935656999999992, 40.697206999999999]} }, 
{"type": "Feature", "properties": {"id" : 308, 	"station" : "Fort Hamilton Pkwy_2", 	"delay" : 24129362.9819}, 	"geometry": { "type": "Point","coordinates": [-74.005351000000005, 40.631385999999999]} }, 
{"type": "Feature", "properties": {"id" : 309, 	"station" : "Queens Plaza_0", 	"delay" : 24029829.4849}, 	"geometry": { "type": "Point","coordinates": [-73.937243000000009, 40.748972999999999]} }, 
{"type": "Feature", "properties": {"id" : 310, 	"station" : "Clark St_0", 	"delay" : 23700100.5714}, 	"geometry": { "type": "Point","coordinates": [-73.993086000000005, 40.697465999999999]} }, 
{"type": "Feature", "properties": {"id" : 311, 	"station" : "Avenue H_0", 	"delay" : 23597175.6488}, 	"geometry": { "type": "Point","coordinates": [-73.961639000000005, 40.629269999999998]} }, 
{"type": "Feature", "properties": {"id" : 312, 	"station" : "Marcy Av_0", 	"delay" : 23574653.6528}, 	"geometry": { "type": "Point","coordinates": [-73.957757000000001, 40.708359000000002]} }, 
{"type": "Feature", "properties": {"id" : 313, 	"station" : "238 St_0", 	"delay" : 23543758.3921}, 	"geometry": { "type": "Point","coordinates": [-73.900869999999998, 40.884667]} }, 
{"type": "Feature", "properties": {"id" : 314, 	"station" : "Brighton Beach_0", 	"delay" : 23409920.5621}, 	"geometry": { "type": "Point","coordinates": [-73.961376000000001, 40.577621000000001]} }, 
{"type": "Feature", "properties": {"id" : 315, 	"station" : "Central Park North (110 St)_0", 	"delay" : 23399066.0679}, 	"geometry": { "type": "Point","coordinates": [-73.951821999999993, 40.799075000000002]} }, 
{"type": "Feature", "properties": {"id" : 316, 	"station" : "Jackson Av_0", 	"delay" : 23330517.9282}, 	"geometry": { "type": "Point","coordinates": [-73.907806999999991, 40.816490000000002]} }, 
{"type": "Feature", "properties": {"id" : 317, 	"station" : "Flushing Av_1", 	"delay" : 23250081.7919}, 	"geometry": { "type": "Point","coordinates": [-73.941125999999997, 40.70026]} }, 
{"type": "Feature", "properties": {"id" : 318, 	"station" : "69 St_0", 	"delay" : 23103938.9775}, 	"geometry": { "type": "Point","coordinates": [-73.896403000000007, 40.746324999999999]} }, 
{"type": "Feature", "properties": {"id" : 319, 	"station" : "116 St_0", 	"delay" : 22912138.8777}, 	"geometry": { "type": "Point","coordinates": [-73.949624999999997, 40.802098000000001]} }, 
{"type": "Feature", "properties": {"id" : 320, 	"station" : "72 St_1", 	"delay" : 22843834.9916}, 	"geometry": { "type": "Point","coordinates": [-73.976410000000001, 40.775593999999998]} }, 
{"type": "Feature", "properties": {"id" : 321, 	"station" : "Avenue J_0", 	"delay" : 22582611.883}, 	"geometry": { "type": "Point","coordinates": [-73.960802999999999, 40.625039000000001]} }, 
{"type": "Feature", "properties": {"id" : 322, 	"station" : "20 Av_0", 	"delay" : 22514953.4972}, 	"geometry": { "type": "Point","coordinates": [-73.998168000000007, 40.604556000000002]} }, 
{"type": "Feature", "properties": {"id" : 323, 	"station" : "46 St_1", 	"delay" : 22267179.8718}, 	"geometry": { "type": "Point","coordinates": [-73.913332999999994, 40.756312000000001]} }, 
{"type": "Feature", "properties": {"id" : 324, 	"station" : "Fort Hamilton Pkwy_0", 	"delay" : 22134353.6279}, 	"geometry": { "type": "Point","coordinates": [-73.994304, 40.640914000000002]} }, 
{"type": "Feature", "properties": {"id" : 325, 	"station" : "Beach 36 St_0", 	"delay" : 22037685.9747}, 	"geometry": { "type": "Point","coordinates": [-73.768174999999999, 40.595397999999996]} }, 
{"type": "Feature", "properties": {"id" : 326, 	"station" : "125 St_1", 	"delay" : 21989404.5256}, 	"geometry": { "type": "Point","coordinates": [-73.945494999999994, 40.807753999999996]} }, 
{"type": "Feature", "properties": {"id" : 327, 	"station" : "Baychester Av_0", 	"delay" : 21853489.0177}, 	"geometry": { "type": "Point","coordinates": [-73.838591000000008, 40.878663000000003]} }, 
{"type": "Feature", "properties": {"id" : 328, 	"station" : "52 St_0", 	"delay" : 21260395.4393}, 	"geometry": { "type": "Point","coordinates": [-73.912548999999999, 40.744149]} }, 
{"type": "Feature", "properties": {"id" : 329, 	"station" : "18 Av_1", 	"delay" : 20757637.8136}, 	"geometry": { "type": "Point","coordinates": [-73.976970999999992, 40.629754999999996]} }, 
{"type": "Feature", "properties": {"id" : 330, 	"station" : "Rockaway Av_0", 	"delay" : 20620287.72}, 	"geometry": { "type": "Point","coordinates": [-73.908946, 40.662548999999999]} }, 
{"type": "Feature", "properties": {"id" : 331, 	"station" : "Franklin Av_0", 	"delay" : 20514327.605}, 	"geometry": { "type": "Point","coordinates": [-73.956507666700006, 40.681118666700002]} }, 
{"type": "Feature", "properties": {"id" : 332, 	"station" : "Lafayette Av_0", 	"delay" : 20482255.4756}, 	"geometry": { "type": "Point","coordinates": [-73.973945999999998, 40.686112999999999]} }, 
{"type": "Feature", "properties": {"id" : 333, 	"station" : "Hunters Point Av_0", 	"delay" : 20361945.5118}, 	"geometry": { "type": "Point","coordinates": [-73.948915999999997, 40.742215999999999]} }, 
{"type": "Feature", "properties": {"id" : 334, 	"station" : "Dyckman St_1", 	"delay" : 20290292.5693}, 	"geometry": { "type": "Point","coordinates": [-73.92727099999999, 40.865490999999999]} }, 
{"type": "Feature", "properties": {"id" : 335, 	"station" : "Kings Hwy_2", 	"delay" : 20241810.4448}, 	"geometry": { "type": "Point","coordinates": [-73.980353000000008, 40.603922999999995]} }, 
{"type": "Feature", "properties": {"id" : 336, 	"station" : "155 St_1", 	"delay" : 20157597.7285}, 	"geometry": { "type": "Point","coordinates": [-73.938209000000001, 40.830134999999999]} }, 
{"type": "Feature", "properties": {"id" : 337, 	"station" : "W 8 St - NY Aquarium_0", 	"delay" : 20075867.2644}, 	"geometry": { "type": "Point","coordinates": [-73.975938999999997, 40.576127]} }, 
{"type": "Feature", "properties": {"id" : 338, 	"station" : "Prospect Av_1", 	"delay" : 20019529.5006}, 	"geometry": { "type": "Point","coordinates": [-73.992871999999991, 40.665413999999998]} }, 
{"type": "Feature", "properties": {"id" : 339, 	"station" : "34 St - 11 Av_0", 	"delay" : 19771384.1837}, 	"geometry": { "type": "Point","coordinates": [-74.001909999999995, 40.755882]} }, 
{"type": "Feature", "properties": {"id" : 340, 	"station" : "Franklin St_0", 	"delay" : 19720129.5661}, 	"geometry": { "type": "Point","coordinates": [-74.006885999999994, 40.719318000000001]} }, 
{"type": "Feature", "properties": {"id" : 341, 	"station" : "Hewes St_0", 	"delay" : 19687954.7367}, 	"geometry": { "type": "Point","coordinates": [-73.953431000000009, 40.706870000000002]} }, 
{"type": "Feature", "properties": {"id" : 342, 	"station" : "Van Siclen Av_0", 	"delay" : 19469584.4818}, 	"geometry": { "type": "Point","coordinates": [-73.889394999999993, 40.665449000000002]} }, 
{"type": "Feature", "properties": {"id" : 343, 	"station" : "170 St_1", 	"delay" : 19423239.2759}, 	"geometry": { "type": "Point","coordinates": [-73.913399999999996, 40.839306000000001]} }, 
{"type": "Feature", "properties": {"id" : 344, 	"station" : "116 St_2", 	"delay" : 19416310.8056}, 	"geometry": { "type": "Point","coordinates": [-73.954881999999998, 40.805084999999998]} }, 
{"type": "Feature", "properties": {"id" : 345, 	"station" : "50 St_2", 	"delay" : 19332684.1929}, 	"geometry": { "type": "Point","coordinates": [-73.994791000000006, 40.63626]} }, 
{"type": "Feature", "properties": {"id" : 346, 	"station" : "Union St_0", 	"delay" : 19150110.6774}, 	"geometry": { "type": "Point","coordinates": [-73.983109999999996, 40.677315999999998]} }, 
{"type": "Feature", "properties": {"id" : 347, 	"station" : "Lorimer St_0", 	"delay" : 19117001.5784}, 	"geometry": { "type": "Point","coordinates": [-73.947407999999996, 40.703868999999997]} }, 
{"type": "Feature", "properties": {"id" : 348, 	"station" : "Kingston Av_0", 	"delay" : 19096984.3875}, 	"geometry": { "type": "Point","coordinates": [-73.942160999999999, 40.669398999999999]} }, 
{"type": "Feature", "properties": {"id" : 349, 	"station" : "Park Pl_0", 	"delay" : 18967344.5835}, 	"geometry": { "type": "Point","coordinates": [-74.008810999999994, 40.713051]} }, 
{"type": "Feature", "properties": {"id" : 350, 	"station" : "Whitlock Av_0", 	"delay" : 18838051.8758}, 	"geometry": { "type": "Point","coordinates": [-73.886282999999992, 40.826524999999997]} }, 
{"type": "Feature", "properties": {"id" : 351, 	"station" : "Bay Pkwy_0", 	"delay" : 18722549.5401}, 	"geometry": { "type": "Point","coordinates": [-73.993728000000004, 40.601875]} }, 
{"type": "Feature", "properties": {"id" : 352, 	"station" : "Smith - 9 Sts_0", 	"delay" : 18530710.7387}, 	"geometry": { "type": "Point","coordinates": [-73.995958999999999, 40.673580000000001]} }, 
{"type": "Feature", "properties": {"id" : 353, 	"station" : "Prospect Av_0", 	"delay" : 18466655.7292}, 	"geometry": { "type": "Point","coordinates": [-73.901769999999999, 40.819584999999996]} }, 
{"type": "Feature", "properties": {"id" : 354, 	"station" : "Norwood Av_0", 	"delay" : 18438006.1271}, 	"geometry": { "type": "Point","coordinates": [-73.880038999999996, 40.68141]} }, 
{"type": "Feature", "properties": {"id" : 355, 	"station" : "Spring St_0", 	"delay" : 18400819.6199}, 	"geometry": { "type": "Point","coordinates": [-73.997140999999999, 40.722301000000002]} }, 
{"type": "Feature", "properties": {"id" : 356, 	"station" : "116 St_1", 	"delay" : 18271763.2244}, 	"geometry": { "type": "Point","coordinates": [-73.941617000000008, 40.798628999999998]} }, 
{"type": "Feature", "properties": {"id" : 357, 	"station" : "Vernon Blvd - Jackson Av_0", 	"delay" : 18046519.3361}, 	"geometry": { "type": "Point","coordinates": [-73.953581, 40.742626000000001]} }, 
{"type": "Feature", "properties": {"id" : 358, 	"station" : "Ozone Park - Lefferts Blvd_0", 	"delay" : 17846511.9783}, 	"geometry": { "type": "Point","coordinates": [-73.825797999999992, 40.685951000000003]} }, 
{"type": "Feature", "properties": {"id" : 359, 	"station" : "Ocean Pkwy_0", 	"delay" : 17700467.3358}, 	"geometry": { "type": "Point","coordinates": [-73.968501000000003, 40.576312000000001]} }, 
{"type": "Feature", "properties": {"id" : 360, 	"station" : "Avenue I_0", 	"delay" : 17686522.8581}, 	"geometry": { "type": "Point","coordinates": [-73.976127000000005, 40.625321999999997]} }, 
{"type": "Feature", "properties": {"id" : 361, 	"station" : "Avenue N_0", 	"delay" : 17600369.4956}, 	"geometry": { "type": "Point","coordinates": [-73.974197000000004, 40.615140000000004]} }, 
{"type": "Feature", "properties": {"id" : 362, 	"station" : "Bay Pkwy_1", 	"delay" : 17383672.8982}, 	"geometry": { "type": "Point","coordinates": [-73.975263999999996, 40.620769000000003]} }, 
{"type": "Feature", "properties": {"id" : 363, 	"station" : "Cleveland St_0", 	"delay" : 17363377.6062}, 	"geometry": { "type": "Point","coordinates": [-73.884639000000007, 40.679946999999999]} }, 
{"type": "Feature", "properties": {"id" : 364, 	"station" : "Elder Av_0", 	"delay" : 17325527.8264}, 	"geometry": { "type": "Point","coordinates": [-73.879159000000001, 40.828583999999999]} }, 
{"type": "Feature", "properties": {"id" : 365, 	"station" : "Morrison Av- Sound View_0", 	"delay" : 16927114.7803}, 	"geometry": { "type": "Point","coordinates": [-73.874516, 40.829521]} }, 
{"type": "Feature", "properties": {"id" : 366, 	"station" : "174-175 Sts_0", 	"delay" : 16870653.0309}, 	"geometry": { "type": "Point","coordinates": [-73.910135999999994, 40.8459]} }, 
{"type": "Feature", "properties": {"id" : 367, 	"station" : "Intervale Av_0", 	"delay" : 16851909.4342}, 	"geometry": { "type": "Point","coordinates": [-73.896736000000004, 40.822181]} }, 
{"type": "Feature", "properties": {"id" : 368, 	"station" : "163 St - Amsterdam Av_0", 	"delay" : 16839386.4057}, 	"geometry": { "type": "Point","coordinates": [-73.939892, 40.836013000000001]} }, 
{"type": "Feature", "properties": {"id" : 369, 	"station" : "Gates Av_0", 	"delay" : 16818273.4028}, 	"geometry": { "type": "Point","coordinates": [-73.922269999999997, 40.689630000000001]} }, 
{"type": "Feature", "properties": {"id" : 370, 	"station" : "Norwood - 205 St_0", 	"delay" : 16617795.8022}, 	"geometry": { "type": "Point","coordinates": [-73.878855000000001, 40.874811000000001]} }, 
{"type": "Feature", "properties": {"id" : 371, 	"station" : "Coney Island - Stillwell Av_0", 	"delay" : 16577467.2838}, 	"geometry": { "type": "Point","coordinates": [-73.981232999999989, 40.577421999999999]} }, 
{"type": "Feature", "properties": {"id" : 372, 	"station" : "Northern Blvd_0", 	"delay" : 16551902.6822}, 	"geometry": { "type": "Point","coordinates": [-73.906006000000005, 40.752884999999999]} }, 
{"type": "Feature", "properties": {"id" : 373, 	"station" : "Grand Army Plaza_0", 	"delay" : 16439821.3413}, 	"geometry": { "type": "Point","coordinates": [-73.971046000000001, 40.675235000000001]} }, 
{"type": "Feature", "properties": {"id" : 374, 	"station" : "Mosholu Pkwy_0", 	"delay" : 16220082.7156}, 	"geometry": { "type": "Point","coordinates": [-73.884655000000009, 40.879750000000001]} }, 
{"type": "Feature", "properties": {"id" : 375, 	"station" : "36 St_1", 	"delay" : 15961125.0154}, 	"geometry": { "type": "Point","coordinates": [-73.928781000000001, 40.752039000000003]} }, 
{"type": "Feature", "properties": {"id" : 376, 	"station" : "Clinton - Washington Avs_0", 	"delay" : 15897850.109}, 	"geometry": { "type": "Point","coordinates": [-73.965838000000005, 40.683263000000004]} }, 
{"type": "Feature", "properties": {"id" : 377, 	"station" : "St Lawrence Av_0", 	"delay" : 15886002.9238}, 	"geometry": { "type": "Point","coordinates": [-73.867618000000007, 40.831509000000004]} }, 
{"type": "Feature", "properties": {"id" : 378, 	"station" : "Kingston - Throop Avs_0", 	"delay" : 15883313.7972}, 	"geometry": { "type": "Point","coordinates": [-73.940857999999992, 40.679921]} }, 
{"type": "Feature", "properties": {"id" : 379, 	"station" : "Avenue P_0", 	"delay" : 15808460.3986}, 	"geometry": { "type": "Point","coordinates": [-73.973022, 40.608944000000001]} }, 
{"type": "Feature", "properties": {"id" : 380, 	"station" : "Ralph Av_0", 	"delay" : 15498833.9693}, 	"geometry": { "type": "Point","coordinates": [-73.920785999999993, 40.678821999999997]} }, 
{"type": "Feature", "properties": {"id" : 381, 	"station" : "Middle Village - Metropolitan Av_0", 	"delay" : 15342663.7651}, 	"geometry": { "type": "Point","coordinates": [-73.889600999999999, 40.711396000000001]} }, 
{"type": "Feature", "properties": {"id" : 382, 	"station" : "Hoyt St_0", 	"delay" : 15118206.8863}, 	"geometry": { "type": "Point","coordinates": [-73.985065000000006, 40.690545]} }, 
{"type": "Feature", "properties": {"id" : 383, 	"station" : "Van Siclen Av_2", 	"delay" : 14879028.4144}, 	"geometry": { "type": "Point","coordinates": [-73.891688000000002, 40.678024000000001]} }, 
{"type": "Feature", "properties": {"id" : 384, 	"station" : "Bergen St_0", 	"delay" : 14813213.9326}, 	"geometry": { "type": "Point","coordinates": [-73.975098000000003, 40.680828999999996]} }, 
{"type": "Feature", "properties": {"id" : 385, 	"station" : "125 St_0", 	"delay" : 14701411.8114}, 	"geometry": { "type": "Point","coordinates": [-73.958371999999997, 40.815581000000002]} }, 
{"type": "Feature", "properties": {"id" : 386, 	"station" : "Buhre Av_0", 	"delay" : 14698436.9853}, 	"geometry": { "type": "Point","coordinates": [-73.832568999999992, 40.846809999999998]} }, 
{"type": "Feature", "properties": {"id" : 387, 	"station" : "Beach 25 St_0", 	"delay" : 14408797.8929}, 	"geometry": { "type": "Point","coordinates": [-73.761353, 40.600065999999998]} }, 
{"type": "Feature", "properties": {"id" : 388, 	"station" : "Cypress Hills_0", 	"delay" : 14249412.5614}, 	"geometry": { "type": "Point","coordinates": [-73.872550000000004, 40.689940999999997]} }, 
{"type": "Feature", "properties": {"id" : 389, 	"station" : "Simpson St_0", 	"delay" : 14137991.3493}, 	"geometry": { "type": "Point","coordinates": [-73.893063999999995, 40.824072999999999]} }, 
{"type": "Feature", "properties": {"id" : 390, 	"station" : "Chauncey St_0", 	"delay" : 14076356.6757}, 	"geometry": { "type": "Point","coordinates": [-73.910456000000011, 40.682893]} }, 
{"type": "Feature", "properties": {"id" : 391, 	"station" : "Nostrand Av_0", 	"delay" : 14024240.1309}, 	"geometry": { "type": "Point","coordinates": [-73.950466000000006, 40.669846999999997]} }, 
{"type": "Feature", "properties": {"id" : 392, 	"station" : "Beach 90 St_0", 	"delay" : 13999894.5096}, 	"geometry": { "type": "Point","coordinates": [-73.813641000000004, 40.588034]} }, 
{"type": "Feature", "properties": {"id" : 393, 	"station" : "86 St_2", 	"delay" : 13408235.9514}, 	"geometry": { "type": "Point","coordinates": [-73.968916000000007, 40.785868000000001]} }, 
{"type": "Feature", "properties": {"id" : 394, 	"station" : "Nereid Av_0", 	"delay" : 13115600.4938}, 	"geometry": { "type": "Point","coordinates": [-73.854376000000002, 40.898378999999998]} }, 
{"type": "Feature", "properties": {"id" : 395, 	"station" : "155 St_0", 	"delay" : 13026431.6675}, 	"geometry": { "type": "Point","coordinates": [-73.941513999999998, 40.830517999999998]} }, 
{"type": "Feature", "properties": {"id" : 396, 	"station" : "Cortlandt St_1", 	"delay" : 12740832.3942}, 	"geometry": { "type": "Point","coordinates": [-74.011029000000008, 40.710667999999998]} }, 
{"type": "Feature", "properties": {"id" : 397, 	"station" : "81 St - Museum of Natural History_0", 	"delay" : 12723714.6552}, 	"geometry": { "type": "Point","coordinates": [-73.972143000000003, 40.781433]} }, 
{"type": "Feature", "properties": {"id" : 398, 	"station" : "65 St_0", 	"delay" : 12193736.6617}, 	"geometry": { "type": "Point","coordinates": [-73.898453000000003, 40.749668999999997]} }, 
{"type": "Feature", "properties": {"id" : 399, 	"station" : "Shepherd Av_0", 	"delay" : 12130565.9569}, 	"geometry": { "type": "Point","coordinates": [-73.880750000000006, 40.674129999999998]} }, 
{"type": "Feature", "properties": {"id" : 400, 	"station" : "25 Av_0", 	"delay" : 12039161.4379}, 	"geometry": { "type": "Point","coordinates": [-73.986829, 40.597704]} }, 
{"type": "Feature", "properties": {"id" : 401, 	"station" : "86 St_3", 	"delay" : 12018814.256}, 	"geometry": { "type": "Point","coordinates": [-73.978230000000011, 40.592721000000004]} }, 
{"type": "Feature", "properties": {"id" : 402, 	"station" : "Freeman St_0", 	"delay" : 11864281.9291}, 	"geometry": { "type": "Point","coordinates": [-73.891864999999996, 40.829993000000002]} }, 
{"type": "Feature", "properties": {"id" : 403, 	"station" : "55 St_0", 	"delay" : 11829442.3416}, 	"geometry": { "type": "Point","coordinates": [-73.995475999999996, 40.631434999999996]} }, 
{"type": "Feature", "properties": {"id" : 404, 	"station" : "25 St_0", 	"delay" : 11718325.4091}, 	"geometry": { "type": "Point","coordinates": [-73.998091000000002, 40.660396999999996]} }, 
{"type": "Feature", "properties": {"id" : 405, 	"station" : "174 St_0", 	"delay" : 11595726.096}, 	"geometry": { "type": "Point","coordinates": [-73.887733999999995, 40.837288000000001]} }, 
{"type": "Feature", "properties": {"id" : 406, 	"station" : "Botanic Garden_0", 	"delay" : 11572672.7731}, 	"geometry": { "type": "Point","coordinates": [-73.959244999999996, 40.670343000000003]} }, 
{"type": "Feature", "properties": {"id" : 407, 	"station" : "Beach 98 St_0", 	"delay" : 11504780.9368}, 	"geometry": { "type": "Point","coordinates": [-73.820557999999991, 40.585307]} }, 
{"type": "Feature", "properties": {"id" : 408, 	"station" : "Inwood - 207 St_0", 	"delay" : 11490085.8774}, 	"geometry": { "type": "Point","coordinates": [-73.919899000000001, 40.868071999999998]} }, 
{"type": "Feature", "properties": {"id" : 409, 	"station" : "Cathedral Pkwy (110 St)_0", 	"delay" : 11395093.1048}, 	"geometry": { "type": "Point","coordinates": [-73.958161000000004, 40.800603000000002]} }, 
{"type": "Feature", "properties": {"id" : 410, 	"station" : "Bowery_0", 	"delay" : 11311927.2331}, 	"geometry": { "type": "Point","coordinates": [-73.993915000000001, 40.720279999999995]} }, 
{"type": "Feature", "properties": {"id" : 411, 	"station" : "137 St - City College_0", 	"delay" : 11309061.4365}, 	"geometry": { "type": "Point","coordinates": [-73.953676000000002, 40.822008000000004]} }, 
{"type": "Feature", "properties": {"id" : 412, 	"station" : "Eastern Pkwy - Brooklyn Museum_0", 	"delay" : 11200436.8223}, 	"geometry": { "type": "Point","coordinates": [-73.964375000000004, 40.671987000000001]} }, 
{"type": "Feature", "properties": {"id" : 413, 	"station" : "157 St_0", 	"delay" : 11179480.6128}, 	"geometry": { "type": "Point","coordinates": [-73.944890000000001, 40.834040999999999]} }, 
{"type": "Feature", "properties": {"id" : 414, 	"station" : "Kings Hwy_1", 	"delay" : 10875827.972}, 	"geometry": { "type": "Point","coordinates": [-73.972360999999992, 40.603217000000001]} }, 
{"type": "Feature", "properties": {"id" : 415, 	"station" : "City Hall_0", 	"delay" : 10870913.3706}, 	"geometry": { "type": "Point","coordinates": [-74.006978000000004, 40.713282]} }, 
{"type": "Feature", "properties": {"id" : 416, 	"station" : "World Trade Center_0", 	"delay" : 10835929.0348}, 	"geometry": { "type": "Point","coordinates": [-74.009781000000004, 40.712581999999998]} }, 
{"type": "Feature", "properties": {"id" : 417, 	"station" : "Bay Ridge - 95 St_0", 	"delay" : 10489786.3785}, 	"geometry": { "type": "Point","coordinates": [-74.030876000000006, 40.616622]} }, 
{"type": "Feature", "properties": {"id" : 418, 	"station" : "Avenue U_1", 	"delay" : 10489524.4378}, 	"geometry": { "type": "Point","coordinates": [-73.979136999999994, 40.597473000000001]} }, 
{"type": "Feature", "properties": {"id" : 419, 	"station" : "182-183 Sts_0", 	"delay" : 10484105.1978}, 	"geometry": { "type": "Point","coordinates": [-73.900740999999996, 40.856093000000001]} }, 
{"type": "Feature", "properties": {"id" : 420, 	"station" : "103 St_2", 	"delay" : 10301937.1267}, 	"geometry": { "type": "Point","coordinates": [-73.961454000000003, 40.796092000000002]} }, 
{"type": "Feature", "properties": {"id" : 421, 	"station" : "145 St_1", 	"delay" : 10089706.5972}, 	"geometry": { "type": "Point","coordinates": [-73.950360000000003, 40.826551000000002]} }, 
{"type": "Feature", "properties": {"id" : 422, 	"station" : "Park Pl_1", 	"delay" : 9937379.22765}, 	"geometry": { "type": "Point","coordinates": [-73.957623999999996, 40.674771999999997]} }, 
{"type": "Feature", "properties": {"id" : 423, 	"station" : "96 St_2", 	"delay" : 9871013.16164}, 	"geometry": { "type": "Point","coordinates": [-73.964695999999989, 40.791641999999996]} }, 
{"type": "Feature", "properties": {"id" : 424, 	"station" : "West Farms Sq - E Tremont Av_0", 	"delay" : 9753608.98225}, 	"geometry": { "type": "Point","coordinates": [-73.880049, 40.840295000000005]} }, 
{"type": "Feature", "properties": {"id" : 425, 	"station" : "New Lots Av_0", 	"delay" : 9628861.98417}, 	"geometry": { "type": "Point","coordinates": [-73.884079, 40.666235]} }, 
{"type": "Feature", "properties": {"id" : 426, 	"station" : "Avenue U_0", 	"delay" : 8851954.49367}, 	"geometry": { "type": "Point","coordinates": [-73.973356999999993, 40.596063000000001]} }, 
{"type": "Feature", "properties": {"id" : 427, 	"station" : "Rockaway Av_1", 	"delay" : 8714363.77726}, 	"geometry": { "type": "Point","coordinates": [-73.911946, 40.678340000000006]} }, 
{"type": "Feature", "properties": {"id" : 428, 	"station" : "Avenue X_0", 	"delay" : 8403560.06371}, 	"geometry": { "type": "Point","coordinates": [-73.974249999999998, 40.589620000000004]} }, 
{"type": "Feature", "properties": {"id" : 429, 	"station" : "Van Cortlandt Park - 242 St_0", 	"delay" : 8230013.5044}, 	"geometry": { "type": "Point","coordinates": [-73.898583000000002, 40.889247999999995]} }, 
{"type": "Feature", "properties": {"id" : 430, 	"station" : "Beach 105 St_0", 	"delay" : 7991271.73611}, 	"geometry": { "type": "Point","coordinates": [-73.827558999999994, 40.583209000000004]} }, 
{"type": "Feature", "properties": {"id" : 431, 	"station" : "Eastchester - Dyre Av_0", 	"delay" : 7839130.62252}, 	"geometry": { "type": "Point","coordinates": [-73.830833999999996, 40.888300000000001]} }, 
{"type": "Feature", "properties": {"id" : 432, 	"station" : "145 St_2", 	"delay" : 7394696.53727}, 	"geometry": { "type": "Point","coordinates": [-73.936245, 40.820421000000003]} }, 
{"type": "Feature", "properties": {"id" : 433, 	"station" : "Neptune Av_0", 	"delay" : 6723549.66782}, 	"geometry": { "type": "Point","coordinates": [-73.974574000000004, 40.581010999999997]} }, 
{"type": "Feature", "properties": {"id" : 434, 	"station" : "Bay 50 St_0", 	"delay" : 6488739.384}, 	"geometry": { "type": "Point","coordinates": [-73.983765000000005, 40.588840999999995]} }, 
{"type": "Feature", "properties": {"id" : 435, 	"station" : "Van Siclen Av_1", 	"delay" : 5902305.63397}, 	"geometry": { "type": "Point","coordinates": [-73.890357999999992, 40.672709999999995]} }, 
{"type": "Feature", "properties": {"id" : 436, 	"station" : "Far Rockaway - Mott Av_0", 	"delay" : 5724565.88779}, 	"geometry": { "type": "Point","coordinates": [-73.75540500000001, 40.603994999999998]} }, 
{"type": "Feature", "properties": {"id" : 437, 	"station" : "Liberty Av_0", 	"delay" : 5427460.20182}, 	"geometry": { "type": "Point","coordinates": [-73.896547999999996, 40.674541999999995]} }, 
{"type": "Feature", "properties": {"id" : 438, 	"station" : "Cortlandt St_0", 	"delay" : 5133535.82497}, 	"geometry": { "type": "Point","coordinates": [-74.012187999999995, 40.711835000000001]} }, 
{"type": "Feature", "properties": {"id" : 439, 	"station" : "Pelham Bay Park_0", 	"delay" : 4836179.11252}, 	"geometry": { "type": "Point","coordinates": [-73.828120999999996, 40.852462000000003]} }, 
{"type": "Feature", "properties": {"id" : 440, 	"station" : "Woodlawn_0", 	"delay" : 4731158.55514}, 	"geometry": { "type": "Point","coordinates": [-73.878750999999994, 40.886037000000002]} }, 
{"type": "Feature", "properties": {"id" : 441, 	"station" : "Wakefield - 241 St_0", 	"delay" : 4366871.74028}, 	"geometry": { "type": "Point","coordinates": [-73.850619999999992, 40.903125000000003]} }, 
{"type": "Feature", "properties": {"id" : 442, 	"station" : "Rockaway Park - Beach 116 St_0", 	"delay" : 4193544.59297}, 	"geometry": { "type": "Point","coordinates": [-73.835592000000005, 40.580902999999999]} }, 
{"type": "Feature", "properties": {"id" : 443, 	"station" : "Harlem - 148 St_0", 	"delay" : 2514206.68549}, 	"geometry": { "type": "Point","coordinates": [-73.93647, 40.823879999999996]} }, 
{"type": "Feature", "properties": {"id" : 444, 	"station" : "Great Kills_0", 	"delay" : 1340234.73992}, 	"geometry": { "type": "Point","coordinates": [-74.151398999999998, 40.551231000000001]} }, 
{"type": "Feature", "properties": {"id" : 445, 	"station" : "Oakwood Heights_0", 	"delay" : 1263801.50725}, 	"geometry": { "type": "Point","coordinates": [-74.126319999999993, 40.565109999999997]} }, 
{"type": "Feature", "properties": {"id" : 446, 	"station" : "New Dorp_0", 	"delay" : 1205128.50882}, 	"geometry": { "type": "Point","coordinates": [-74.11721, 40.573479999999996]} }, 
{"type": "Feature", "properties": {"id" : 447, 	"station" : "Bay Terrace_0", 	"delay" : 1140384.96855}, 	"geometry": { "type": "Point","coordinates": [-74.136906999999994, 40.556399999999996]} }, 
{"type": "Feature", "properties": {"id" : 448, 	"station" : "Eltingville_0", 	"delay" : 1105541.63325}, 	"geometry": { "type": "Point","coordinates": [-74.164569999999998, 40.544601]} }, 
{"type": "Feature", "properties": {"id" : 449, 	"station" : "Annadale_0", 	"delay" : 1015967.40071}, 	"geometry": { "type": "Point","coordinates": [-74.178217000000004, 40.540459999999996]} }, 
{"type": "Feature", "properties": {"id" : 450, 	"station" : "Huguenot_0", 	"delay" : 835539.974754}, 	"geometry": { "type": "Point","coordinates": [-74.191793999999987, 40.533673999999998]} }, 
{"type": "Feature", "properties": {"id" : 451, 	"station" : "Prince's Bay_0", 	"delay" : 757205.06306}, 	"geometry": { "type": "Point","coordinates": [-74.200063999999998, 40.525506999999998]} }, 
{"type": "Feature", "properties": {"id" : 452, 	"station" : "Grasmere_0", 	"delay" : 748474.211675}, 	"geometry": { "type": "Point","coordinates": [-74.084086999999997, 40.603116999999997]} }, 
{"type": "Feature", "properties": {"id" : 453, 	"station" : "Old Town_0", 	"delay" : 669060.989756}, 	"geometry": { "type": "Point","coordinates": [-74.087368000000012, 40.596612]} }, 
{"type": "Feature", "properties": {"id" : 454, 	"station" : "St George_0", 	"delay" : 622878.951825}, 	"geometry": { "type": "Point","coordinates": [-74.073643000000004, 40.643747999999995]} }, 
{"type": "Feature", "properties": {"id" : 455, 	"station" : "Pleasant Plains_0", 	"delay" : 529678.358473}, 	"geometry": { "type": "Point","coordinates": [-74.217846999999992, 40.522410000000001]} }, 
{"type": "Feature", "properties": {"id" : 456, 	"station" : "Stapleton_0", 	"delay" : 516426.277517}, 	"geometry": { "type": "Point","coordinates": [-74.075162000000006, 40.627915000000002]} }, 
{"type": "Feature", "properties": {"id" : 457, 	"station" : "Tompkinsville_0", 	"delay" : 460420.297178}, 	"geometry": { "type": "Point","coordinates": [-74.074834999999993, 40.636949000000001]} }, 
{"type": "Feature", "properties": {"id" : 458, 	"station" : "Dongan Hills_0", 	"delay" : 442310.709979}, 	"geometry": { "type": "Point","coordinates": [-74.096090000000004, 40.588848999999996]} }, 
{"type": "Feature", "properties": {"id" : 459, 	"station" : "Jefferson Av_0", 	"delay" : 408251.145956}, 	"geometry": { "type": "Point","coordinates": [-74.103337999999994, 40.583590999999998]} }, 
{"type": "Feature", "properties": {"id" : 460, 	"station" : "Clifton_0", 	"delay" : 385438.542616}, 	"geometry": { "type": "Point","coordinates": [-74.071402000000006, 40.621319]} }, 
{"type": "Feature", "properties": {"id" : 461, 	"station" : "Grant City_0", 	"delay" : 358547.073313}, 	"geometry": { "type": "Point","coordinates": [-74.109704000000008, 40.578965000000004]} }, 
{"type": "Feature", "properties": {"id" : 462, 	"station" : "Richmond Valley_0", 	"delay" : 347826.841147}, 	"geometry": { "type": "Point","coordinates": [-74.229140999999998, 40.519630999999997]} }, 
{"type": "Feature", "properties": {"id" : 463, 	"station" : "Arthur Kill_0", 	"delay" : 177711.891489}, 	"geometry": { "type": "Point","coordinates": [-74.242095999999989, 40.516578000000003]} }, 
{"type": "Feature", "properties": {"id" : 464, 	"station" : "Tottenville_0", 	"delay" : 25770.0575317}, 	"geometry": { "type": "Point","coordinates": [-74.251960999999994, 40.512764000000004]} }
]}
