{"objects": [
{ "type": "Feature", "properties": {"id":0,"station":"Jackson Hts - Roosevelt Av_0","delay":301205900.135},"geometry": { "type": "Point", "coordinates": [-73.891338, 40.746644]} },
{ "type": "Feature", "properties": {"id":1,"station":"149 St - Grand Concourse_0","delay":284908878.452},"geometry": { "type": "Point", "coordinates": [-73.926929, 40.8183983333]} },
{ "type": "Feature", "properties": {"id":2,"station":"125 St_2","delay":281095859.893},"geometry": { "type": "Point", "coordinates": [-73.937594, 40.804138]} },
{ "type": "Feature", "properties": {"id":3,"station":"Broadway Jct_0","delay":279697292.304},"geometry": { "type": "Point", "coordinates": [-73.9045792, 40.678904]} },
{ "type": "Feature", "properties": {"id":4,"station":"Grand Central - 42 St_0","delay":276309490.943},"geometry": { "type": "Point", "coordinates": [-73.9766866, 40.751707]} },
{ "type": "Feature", "properties": {"id":5,"station":"Junction Blvd_0","delay":272507330.648},"geometry": { "type": "Point", "coordinates": [-73.869527, 40.749145]} },
{ "type": "Feature", "properties": {"id":6,"station":"Kew Gardens - Union Tpke_0","delay":269526592.055},"geometry": { "type": "Point", "coordinates": [-73.831008, 40.714441]} },
{ "type": "Feature", "properties": {"id":7,"station":"3 Av - 149 St_0","delay":254329200},"geometry": { "type": "Point", "coordinates": [-73.917757, 40.816109]} },
{ "type": "Feature", "properties": {"id":8,"station":"Lexington Av/63 St_0","delay":242562659.449},"geometry": { "type": "Point", "coordinates": [-73.966113, 40.764629]} },
{ "type": "Feature", "properties": {"id":9,"station":"Queensboro Plaza_0","delay":241567385.955},"geometry": { "type": "Point", "coordinates": [-73.940202, 40.750582]} },
{ "type": "Feature", "properties": {"id":10,"station":"Franklin Av_1","delay":233154443.46},"geometry": { "type": "Point", "coordinates": [-73.958131, 40.670682]} },
{ "type": "Feature", "properties": {"id":11,"station":"3 Av - 138 St_0","delay":231667200},"geometry": { "type": "Point", "coordinates": [-73.926138, 40.810476]} },
{ "type": "Feature", "properties": {"id":12,"station":"161 St - Yankee Stadium_0","delay":224782444.803},"geometry": { "type": "Point", "coordinates": [-73.925711, 40.8279346667]} },
{ "type": "Feature", "properties": {"id":13,"station":"36 St_0","delay":218885155.283},"geometry": { "type": "Point", "coordinates": [-74.003549, 40.655144]} },
{ "type": "Feature", "properties": {"id":14,"station":"72 St_2","delay":216691200},"geometry": { "type": "Point", "coordinates": [-73.958424, 40.768799]} },
{ "type": "Feature", "properties": {"id":15,"station":"Euclid Av_0","delay":202447500},"geometry": { "type": "Point", "coordinates": [-73.872106, 40.675377]} },
{ "type": "Feature", "properties": {"id":16,"station":"39 Av_0","delay":199249200},"geometry": { "type": "Point", "coordinates": [-73.932755, 40.752882]} },
{ "type": "Feature", "properties": {"id":17,"station":"36 Av_0","delay":196700400},"geometry": { "type": "Point", "coordinates": [-73.929575, 40.756804]} },
{ "type": "Feature", "properties": {"id":18,"station":"Parsons Blvd_0","delay":195591600},"geometry": { "type": "Point", "coordinates": [-73.803326, 40.707564]} },
{ "type": "Feature", "properties": {"id":19,"station":"Forest Hills - 71 Av_0","delay":194729005.825},"geometry": { "type": "Point", "coordinates": [-73.844521, 40.721691]} },
{ "type": "Feature", "properties": {"id":20,"station":"Grant Av_0","delay":193507200},"geometry": { "type": "Point", "coordinates": [-73.86505, 40.677044]} },
{ "type": "Feature", "properties": {"id":21,"station":"59 St_0","delay":191735686.971},"geometry": { "type": "Point", "coordinates": [-73.967967, 40.762526]} },
{ "type": "Feature", "properties": {"id":22,"station":"Hunts Point Av_0","delay":191325600},"geometry": { "type": "Point", "coordinates": [-73.890549, 40.820948]} },
{ "type": "Feature", "properties": {"id":23,"station":"President St_0","delay":190162800},"geometry": { "type": "Point", "coordinates": [-73.950683, 40.667883]} },
{ "type": "Feature", "properties": {"id":24,"station":"Atlantic Av - Barclays Ctr_0","delay":189349948.005},"geometry": { "type": "Point", "coordinates": [-73.9778748889, 40.6841504444]} },
{ "type": "Feature", "properties": {"id":25,"station":"42 St - Port Authority Bus Terminal_0","delay":184786800.264},"geometry": { "type": "Point", "coordinates": [-73.989735, 40.757308]} },
{ "type": "Feature", "properties": {"id":26,"station":"14 St - Union Sq_0","delay":181991702.297},"geometry": { "type": "Point", "coordinates": [-73.9902595, 40.7352045]} },
{ "type": "Feature", "properties": {"id":27,"station":"Sterling St_0","delay":180536400},"geometry": { "type": "Point", "coordinates": [-73.95085, 40.662742]} },
{ "type": "Feature", "properties": {"id":28,"station":"Broadway_1","delay":174884400},"geometry": { "type": "Point", "coordinates": [-73.925508, 40.76182]} },
{ "type": "Feature", "properties": {"id":29,"station":"80 St_0","delay":172328400},"geometry": { "type": "Point", "coordinates": [-73.858992, 40.679371]} },
{ "type": "Feature", "properties": {"id":30,"station":"E 180 St_0","delay":172069200},"geometry": { "type": "Point", "coordinates": [-73.873488, 40.841894]} },
{ "type": "Feature", "properties": {"id":31,"station":"Winthrop St_0","delay":169927200},"geometry": { "type": "Point", "coordinates": [-73.9502, 40.656652]} },
{ "type": "Feature", "properties": {"id":32,"station":"168 St - Washington Hts_0","delay":169786980.771},"geometry": { "type": "Point", "coordinates": [-73.940133, 40.840556]} },
{ "type": "Feature", "properties": {"id":33,"station":"Whitehall St_0","delay":166596571.986},"geometry": { "type": "Point", "coordinates": [-74.012994, 40.703087]} },
{ "type": "Feature", "properties": {"id":34,"station":"Grand Central - 42 St_1","delay":166557697.984},"geometry": { "type": "Point", "coordinates": [-73.979189, 40.752769]} },
{ "type": "Feature", "properties": {"id":35,"station":"5 Av/53 St_0","delay":163874228.59},"geometry": { "type": "Point", "coordinates": [-73.975224, 40.760167]} },
{ "type": "Feature", "properties": {"id":36,"station":"59 St - Columbus Circle_0","delay":163710140.27},"geometry": { "type": "Point", "coordinates": [-73.9818187143, 40.768275]} },
{ "type": "Feature", "properties": {"id":37,"station":"88 St_0","delay":163116000},"geometry": { "type": "Point", "coordinates": [-73.85147, 40.679843]} },
{ "type": "Feature", "properties": {"id":38,"station":"Mets - Willets Point_0","delay":161791200},"geometry": { "type": "Point", "coordinates": [-73.845625, 40.754622]} },
{ "type": "Feature", "properties": {"id":39,"station":"34 St - Penn Station_1","delay":160662771.15},"geometry": { "type": "Point", "coordinates": [-73.993391, 40.752287]} },
{ "type": "Feature", "properties": {"id":40,"station":"Church Av_0","delay":159645600},"geometry": { "type": "Point", "coordinates": [-73.949575, 40.650843]} },
{ "type": "Feature", "properties": {"id":41,"station":"Jamaica - 179 St_0","delay":159181200},"geometry": { "type": "Point", "coordinates": [-73.783817, 40.712646]} },
{ "type": "Feature", "properties": {"id":42,"station":"181 St_0","delay":158248800},"geometry": { "type": "Point", "coordinates": [-73.933596, 40.849505]} },
{ "type": "Feature", "properties": {"id":43,"station":"Flushing - Main St_0","delay":157528800},"geometry": { "type": "Point", "coordinates": [-73.83003, 40.7596]} },
{ "type": "Feature", "properties": {"id":44,"station":"Prospect Park_0","delay":156023814.804},"geometry": { "type": "Point", "coordinates": [-73.962246, 40.661614]} },
{ "type": "Feature", "properties": {"id":45,"station":"Rockaway Blvd_0","delay":155858400},"geometry": { "type": "Point", "coordinates": [-73.843853, 40.680429]} },
{ "type": "Feature", "properties": {"id":46,"station":"167 St_0","delay":151549200},"geometry": { "type": "Point", "coordinates": [-73.9214, 40.835537]} },
{ "type": "Feature", "properties": {"id":47,"station":"30 Av_0","delay":149392800},"geometry": { "type": "Point", "coordinates": [-73.921479, 40.766779]} },
{ "type": "Feature", "properties": {"id":48,"station":"86 St_1","delay":149002044.381},"geometry": { "type": "Point", "coordinates": [-73.955589, 40.779492]} },
{ "type": "Feature", "properties": {"id":49,"station":"86 St_4","delay":147834000},"geometry": { "type": "Point", "coordinates": [-73.951787, 40.777891]} },
{ "type": "Feature", "properties": {"id":50,"station":"47-50 Sts - Rockefeller Ctr_0","delay":145230650.543},"geometry": { "type": "Point", "coordinates": [-73.981329, 40.758663]} },
{ "type": "Feature", "properties": {"id":51,"station":"Church Av_1","delay":140320358.849},"geometry": { "type": "Point", "coordinates": [-73.962982, 40.650527]} },
{ "type": "Feature", "properties": {"id":52,"station":"Times Sq - 42 St_0","delay":139840736.411},"geometry": { "type": "Point", "coordinates": [-73.9870916, 40.7551308]} },
{ "type": "Feature", "properties": {"id":53,"station":"59 St_1","delay":136544371.345},"geometry": { "type": "Point", "coordinates": [-74.017881, 40.641362]} },
{ "type": "Feature", "properties": {"id":54,"station":"168 St_0","delay":134585113.405},"geometry": { "type": "Point", "coordinates": [-73.939561, 40.840719]} },
{ "type": "Feature", "properties": {"id":55,"station":"72 St_0","delay":133946875.624},"geometry": { "type": "Point", "coordinates": [-73.98197, 40.778453]} },
{ "type": "Feature", "properties": {"id":56,"station":"33 St_0","delay":132854408.517},"geometry": { "type": "Point", "coordinates": [-73.982076, 40.746081]} },
{ "type": "Feature", "properties": {"id":57,"station":"Myrtle - Wyckoff Avs_0","delay":132602709.023},"geometry": { "type": "Point", "coordinates": [-73.9119855, 40.699622]} },
{ "type": "Feature", "properties": {"id":58,"station":"191 St_0","delay":132040800},"geometry": { "type": "Point", "coordinates": [-73.929412, 40.855225]} },
{ "type": "Feature", "properties": {"id":59,"station":"Parkchester_0","delay":128566800},"geometry": { "type": "Point", "coordinates": [-73.860816, 40.833226]} },
{ "type": "Feature", "properties": {"id":60,"station":"51 St_0","delay":125444114.252},"geometry": { "type": "Point", "coordinates": [-73.97192, 40.757107]} },
{ "type": "Feature", "properties": {"id":61,"station":"Fulton St_1","delay":124752536.039},"geometry": { "type": "Point", "coordinates": [-74.0087818, 40.7102996]} },
{ "type": "Feature", "properties": {"id":62,"station":"170 St_0","delay":119632012.5},"geometry": { "type": "Point", "coordinates": [-73.917791, 40.840075]} },
{ "type": "Feature", "properties": {"id":63,"station":"90 St - Elmhurst Av_0","delay":119295183.5},"geometry": { "type": "Point", "coordinates": [-73.876613, 40.748408]} },
{ "type": "Feature", "properties": {"id":64,"station":"Beverly Rd_0","delay":118483200},"geometry": { "type": "Point", "coordinates": [-73.948959, 40.645098]} },
{ "type": "Feature", "properties": {"id":65,"station":"Astoria Blvd_0","delay":115480800},"geometry": { "type": "Point", "coordinates": [-73.917843, 40.770258]} },
{ "type": "Feature", "properties": {"id":66,"station":"Dyckman St_0","delay":114310800},"geometry": { "type": "Point", "coordinates": [-73.925536, 40.860531]} },
{ "type": "Feature", "properties": {"id":67,"station":"Tremont Av_0","delay":113494731.476},"geometry": { "type": "Point", "coordinates": [-73.905227, 40.85041]} },
{ "type": "Feature", "properties": {"id":68,"station":"Newkirk Plaza_0","delay":112878557.432},"geometry": { "type": "Point", "coordinates": [-73.962793, 40.635082]} },
{ "type": "Feature", "properties": {"id":69,"station":"4 Av_0","delay":110319559.04},"geometry": { "type": "Point", "coordinates": [-73.989779, 40.670272]} },
{ "type": "Feature", "properties": {"id":70,"station":"Livonia Av_0","delay":108424895.545},"geometry": { "type": "Point", "coordinates": [-73.900571, 40.664038]} },
{ "type": "Feature", "properties": {"id":71,"station":"7 Av_2","delay":108281524.043},"geometry": { "type": "Point", "coordinates": [-73.980305, 40.666271]} },
{ "type": "Feature", "properties": {"id":72,"station":"Bay Ridge Av_0","delay":108208800},"geometry": { "type": "Point", "coordinates": [-74.023377, 40.634967]} },
{ "type": "Feature", "properties": {"id":73,"station":"Mt Eden Av_0","delay":107845575},"geometry": { "type": "Point", "coordinates": [-73.914685, 40.844434]} },
{ "type": "Feature", "properties": {"id":74,"station":"Bronx Park East_0","delay":107776800},"geometry": { "type": "Point", "coordinates": [-73.868457, 40.848828]} },
{ "type": "Feature", "properties": {"id":75,"station":"Fulton St_0","delay":107387530.83},"geometry": { "type": "Point", "coordinates": [-74.006908, 40.7097353333]} },
{ "type": "Feature", "properties": {"id":76,"station":"Newkirk Av_0","delay":105962400},"geometry": { "type": "Point", "coordinates": [-73.948411, 40.639967]} },
{ "type": "Feature", "properties": {"id":77,"station":"Burnside Av_0","delay":105944400},"geometry": { "type": "Point", "coordinates": [-73.907684, 40.853453]} },
{ "type": "Feature", "properties": {"id":78,"station":"82 St - Jackson Hts_0","delay":105136981.335},"geometry": { "type": "Point", "coordinates": [-73.883697, 40.747659]} },
{ "type": "Feature", "properties": {"id":79,"station":"New Lots Av_1","delay":103482000},"geometry": { "type": "Point", "coordinates": [-73.899232, 40.658733]} },
{ "type": "Feature", "properties": {"id":80,"station":"Seneca Av_0","delay":103118400},"geometry": { "type": "Point", "coordinates": [-73.90774, 40.702762]} },
{ "type": "Feature", "properties": {"id":81,"station":"103 St - Corona Plaza_0","delay":102141540},"geometry": { "type": "Point", "coordinates": [-73.8627, 40.749865]} },
{ "type": "Feature", "properties": {"id":82,"station":"Jay St - MetroTech_0","delay":101772093.412},"geometry": { "type": "Point", "coordinates": [-73.986782, 40.6922748]} },
{ "type": "Feature", "properties": {"id":83,"station":"175 St_0","delay":101635200},"geometry": { "type": "Point", "coordinates": [-73.939704, 40.847391]} },
{ "type": "Feature", "properties": {"id":84,"station":"74 St - Broadway_0","delay":101437187.719},"geometry": { "type": "Point", "coordinates": [-73.891394, 40.746848]} },
{ "type": "Feature", "properties": {"id":85,"station":"3 Av_0","delay":101156453.717},"geometry": { "type": "Point", "coordinates": [-73.986122, 40.732849]} },
{ "type": "Feature", "properties": {"id":86,"station":"Castle Hill Av_0","delay":101131200},"geometry": { "type": "Point", "coordinates": [-73.851222, 40.834255]} },
{ "type": "Feature", "properties": {"id":87,"station":"Lexington Av/53 St_0","delay":100597235.538},"geometry": { "type": "Point", "coordinates": [-73.969055, 40.757552]} },
{ "type": "Feature", "properties": {"id":88,"station":"23 St_1","delay":100448155.987},"geometry": { "type": "Point", "coordinates": [-73.986599, 40.739864]} },
{ "type": "Feature", "properties": {"id":89,"station":"176 St_0","delay":100310250},"geometry": { "type": "Point", "coordinates": [-73.911794, 40.84848]} },
{ "type": "Feature", "properties": {"id":90,"station":"1 Av_0","delay":100256348.173},"geometry": { "type": "Point", "coordinates": [-73.981628, 40.730953]} },
{ "type": "Feature", "properties": {"id":91,"station":"Sutphin Blvd - Archer Av - JFK Airport_0","delay":99052840.1039},"geometry": { "type": "Point", "coordinates": [-73.807969, 40.700486]} },
{ "type": "Feature", "properties": {"id":92,"station":"E 105 St_0","delay":98658000},"geometry": { "type": "Point", "coordinates": [-73.899485, 40.650573]} },
{ "type": "Feature", "properties": {"id":93,"station":"Union Sq - 14 St_0","delay":98176775.46},"geometry": { "type": "Point", "coordinates": [-73.99073, 40.734789]} },
{ "type": "Feature", "properties": {"id":94,"station":"Aqueduct - N Conduit Av_0","delay":97268400},"geometry": { "type": "Point", "coordinates": [-73.834058, 40.668234]} },
{ "type": "Feature", "properties": {"id":95,"station":"207 St_0","delay":96426000},"geometry": { "type": "Point", "coordinates": [-73.918822, 40.864621]} },
{ "type": "Feature", "properties": {"id":96,"station":"Pelham Pkwy_0","delay":95601600},"geometry": { "type": "Point", "coordinates": [-73.867615, 40.857192]} },
{ "type": "Feature", "properties": {"id":97,"station":"96 St_0","delay":95031934.8621},"geometry": { "type": "Point", "coordinates": [-73.972323, 40.793919]} },
{ "type": "Feature", "properties": {"id":98,"station":"Briarwood - Van Wyck Blvd_0","delay":94608945},"geometry": { "type": "Point", "coordinates": [-73.820574, 40.709179]} },
{ "type": "Feature", "properties": {"id":99,"station":"Houston St_0","delay":94378037.34},"geometry": { "type": "Point", "coordinates": [-74.005367, 40.728251]} },
{ "type": "Feature", "properties": {"id":100,"station":"Lorimer St_1","delay":92616671.3076},"geometry": { "type": "Point", "coordinates": [-73.950275, 40.714063]} },
{ "type": "Feature", "properties": {"id":101,"station":"Kings Hwy_0","delay":92284371.7904},"geometry": { "type": "Point", "coordinates": [-73.957734, 40.60867]} },
{ "type": "Feature", "properties": {"id":102,"station":"183 St_0","delay":91836000},"geometry": { "type": "Point", "coordinates": [-73.903879, 40.858407]} },
{ "type": "Feature", "properties": {"id":103,"station":"28 St_1","delay":91408958.7402},"geometry": { "type": "Point", "coordinates": [-73.984264, 40.74307]} },
{ "type": "Feature", "properties": {"id":104,"station":"Howard Beach - JFK Airport_0","delay":91213200},"geometry": { "type": "Point", "coordinates": [-73.830301, 40.660476]} },
{ "type": "Feature", "properties": {"id":105,"station":"34 St - Herald Sq_0","delay":90801761.099},"geometry": { "type": "Point", "coordinates": [-73.9878865, 40.749643]} },
{ "type": "Feature", "properties": {"id":106,"station":"57 St - 7 Av_0","delay":90688608.1259},"geometry": { "type": "Point", "coordinates": [-73.980658, 40.764664]} },
{ "type": "Feature", "properties": {"id":107,"station":"Court St_0","delay":90515194.5658},"geometry": { "type": "Point", "coordinates": [-73.991777, 40.6941]} },
{ "type": "Feature", "properties": {"id":108,"station":"8 Av_0","delay":89988336.4067},"geometry": { "type": "Point", "coordinates": [-74.002578, 40.739777]} },
{ "type": "Feature", "properties": {"id":109,"station":"145 St_0","delay":89666349.0035},"geometry": { "type": "Point", "coordinates": [-73.944216, 40.824783]} },
{ "type": "Feature", "properties": {"id":110,"station":"215 St_0","delay":88610400},"geometry": { "type": "Point", "coordinates": [-73.915279, 40.869444]} },
{ "type": "Feature", "properties": {"id":111,"station":"66 St - Lincoln Center_0","delay":87757287.0754},"geometry": { "type": "Point", "coordinates": [-73.982209, 40.77344]} },
{ "type": "Feature", "properties": {"id":112,"station":"15 St - Prospect Park_0","delay":87004156.9461},"geometry": { "type": "Point", "coordinates": [-73.979493, 40.660365]} },
{ "type": "Feature", "properties": {"id":113,"station":"Allerton Av_0","delay":86824800},"geometry": { "type": "Point", "coordinates": [-73.867352, 40.865462]} },
{ "type": "Feature", "properties": {"id":114,"station":"169 St_0","delay":86800392.7612},"geometry": { "type": "Point", "coordinates": [-73.793604, 40.71047]} },
{ "type": "Feature", "properties": {"id":115,"station":"Brook Av_0","delay":86793090},"geometry": { "type": "Point", "coordinates": [-73.91924, 40.807566]} },
{ "type": "Feature", "properties": {"id":116,"station":"77 St_1","delay":86112000},"geometry": { "type": "Point", "coordinates": [-74.02551, 40.629742]} },
{ "type": "Feature", "properties": {"id":117,"station":"Canarsie - Rockaway Pkwy_0","delay":85471200},"geometry": { "type": "Point", "coordinates": [-73.90185, 40.646654]} },
{ "type": "Feature", "properties": {"id":118,"station":"W 4 St_0","delay":85419119.4526},"geometry": { "type": "Point", "coordinates": [-74.000495, 40.732338]} },
{ "type": "Feature", "properties": {"id":119,"station":"Fordham Rd_1","delay":85334400},"geometry": { "type": "Point", "coordinates": [-73.897749, 40.861296]} },
{ "type": "Feature", "properties": {"id":120,"station":"Franklin St_0","delay":85304610.4453},"geometry": { "type": "Point", "coordinates": [-74.006886, 40.719318]} },
{ "type": "Feature", "properties": {"id":121,"station":"Forest Av_0","delay":84913200},"geometry": { "type": "Point", "coordinates": [-73.903077, 40.704423]} },
{ "type": "Feature", "properties": {"id":122,"station":"Morris Park_0","delay":84852000},"geometry": { "type": "Point", "coordinates": [-73.860495, 40.854364]} },
{ "type": "Feature", "properties": {"id":123,"station":"111 St_0","delay":84402840},"geometry": { "type": "Point", "coordinates": [-73.855334, 40.75173]} },
{ "type": "Feature", "properties": {"id":124,"station":"Rector St_0","delay":83457571.7385},"geometry": { "type": "Point", "coordinates": [-74.0135184, 40.7073372]} },
{ "type": "Feature", "properties": {"id":125,"station":"Sutphin Blvd_0","delay":83432295},"geometry": { "type": "Point", "coordinates": [-73.810708, 40.70546]} },
{ "type": "Feature", "properties": {"id":126,"station":"Essex St_0","delay":82901334.7055},"geometry": { "type": "Point", "coordinates": [-73.987437, 40.718315]} },
{ "type": "Feature", "properties": {"id":127,"station":"14 St_2","delay":82657207.6325},"geometry": { "type": "Point", "coordinates": [-73.996209, 40.738228]} },
{ "type": "Feature", "properties": {"id":128,"station":"125 St_3","delay":82386176.5943},"geometry": { "type": "Point", "coordinates": [-73.952343, 40.811109]} },
{ "type": "Feature", "properties": {"id":129,"station":"28 St_2","delay":82256393.0112},"geometry": { "type": "Point", "coordinates": [-73.988691, 40.745494]} },
{ "type": "Feature", "properties": {"id":130,"station":"Grand St_1","delay":82145456.5314},"geometry": { "type": "Point", "coordinates": [-73.94067, 40.711926]} },
{ "type": "Feature", "properties": {"id":131,"station":"Graham Av_0","delay":81927763.0718},"geometry": { "type": "Point", "coordinates": [-73.944053, 40.714565]} },
{ "type": "Feature", "properties": {"id":132,"station":"Astoria - Ditmars Blvd_0","delay":81514800},"geometry": { "type": "Point", "coordinates": [-73.912034, 40.775036]} },
{ "type": "Feature", "properties": {"id":133,"station":"Cypress Av_0","delay":81197580},"geometry": { "type": "Point", "coordinates": [-73.914042, 40.805368]} },
{ "type": "Feature", "properties": {"id":134,"station":"67 Av_0","delay":80263133.103},"geometry": { "type": "Point", "coordinates": [-73.852719, 40.726523]} },
{ "type": "Feature", "properties": {"id":135,"station":"Fordham Rd_0","delay":78703200},"geometry": { "type": "Point", "coordinates": [-73.901034, 40.862803]} },
{ "type": "Feature", "properties": {"id":136,"station":"Burke Av_0","delay":78660000},"geometry": { "type": "Point", "coordinates": [-73.867164, 40.871356]} },
{ "type": "Feature", "properties": {"id":137,"station":"Montrose Av_0","delay":77894828.3562},"geometry": { "type": "Point", "coordinates": [-73.93985, 40.707739]} },
{ "type": "Feature", "properties": {"id":138,"station":"50 St_1","delay":77356850.0774},"geometry": { "type": "Point", "coordinates": [-73.985984, 40.762456]} },
{ "type": "Feature", "properties": {"id":139,"station":"Canal St_2","delay":77276655.6922},"geometry": { "type": "Point", "coordinates": [-74.005229, 40.720824]} },
{ "type": "Feature", "properties": {"id":140,"station":"181 St_1","delay":77227200},"geometry": { "type": "Point", "coordinates": [-73.937969, 40.851695]} },
{ "type": "Feature", "properties": {"id":141,"station":"Marble Hill - 225 St_0","delay":76500000},"geometry": { "type": "Point", "coordinates": [-73.909831, 40.874561]} },
{ "type": "Feature", "properties": {"id":142,"station":"East Broadway_0","delay":76489287.491},"geometry": { "type": "Point", "coordinates": [-73.990173, 40.713715]} },
{ "type": "Feature", "properties": {"id":143,"station":"104 St_0","delay":76327200},"geometry": { "type": "Point", "coordinates": [-73.837683, 40.681711]} },
{ "type": "Feature", "properties": {"id":144,"station":"135 St_0","delay":76318252.6474},"geometry": { "type": "Point", "coordinates": [-73.94077, 40.814229]} },
{ "type": "Feature", "properties": {"id":145,"station":"Nostrand Av_1","delay":75881384.8194},"geometry": { "type": "Point", "coordinates": [-73.950426, 40.680438]} },
{ "type": "Feature", "properties": {"id":146,"station":"Zerega Av_0","delay":75783600},"geometry": { "type": "Point", "coordinates": [-73.847036, 40.836488]} },
{ "type": "Feature", "properties": {"id":147,"station":"5 Av/59 St_0","delay":75695457.134},"geometry": { "type": "Point", "coordinates": [-73.973347, 40.764811]} },
{ "type": "Feature", "properties": {"id":148,"station":"Fort Hamilton Pkwy_1","delay":75529967.775},"geometry": { "type": "Point", "coordinates": [-73.975776, 40.650782]} },
{ "type": "Feature", "properties": {"id":149,"station":"Hoyt - Schermerhorn Sts_0","delay":75204312.6169},"geometry": { "type": "Point", "coordinates": [-73.985001, 40.688484]} },
{ "type": "Feature", "properties": {"id":150,"station":"Flatbush Av - Brooklyn College_0","delay":75103200},"geometry": { "type": "Point", "coordinates": [-73.947642, 40.632836]} },
{ "type": "Feature", "properties": {"id":151,"station":"DeKalb Av_1","delay":74984428.2598},"geometry": { "type": "Point", "coordinates": [-73.918425, 40.703811]} },
{ "type": "Feature", "properties": {"id":152,"station":"Cortlandt St_0","delay":74807181.7447},"geometry": { "type": "Point", "coordinates": [-74.012188, 40.711835]} },
{ "type": "Feature", "properties": {"id":153,"station":"77 St_0","delay":74730749.6273},"geometry": { "type": "Point", "coordinates": [-73.959874, 40.77362]} },
{ "type": "Feature", "properties": {"id":154,"station":"Aqueduct Racetrack_0","delay":74685600},"geometry": { "type": "Point", "coordinates": [-73.834058, 40.668234]} },
{ "type": "Feature", "properties": {"id":155,"station":"Pelham Pkwy_1","delay":74354400},"geometry": { "type": "Point", "coordinates": [-73.855359, 40.858985]} },
{ "type": "Feature", "properties": {"id":156,"station":"23 St_3","delay":74137980.1874},"geometry": { "type": "Point", "coordinates": [-73.992821, 40.742878]} },
{ "type": "Feature", "properties": {"id":157,"station":"Broadway-Lafayette St_0","delay":73972670.6094},"geometry": { "type": "Point", "coordinates": [-73.996204, 40.725297]} },
{ "type": "Feature", "properties": {"id":158,"station":"Bedford Av_0","delay":73406479.3964},"geometry": { "type": "Point", "coordinates": [-73.956872, 40.717304]} },
{ "type": "Feature", "properties": {"id":159,"station":"Longwood Av_0","delay":73290300},"geometry": { "type": "Point", "coordinates": [-73.896435, 40.816104]} },
{ "type": "Feature", "properties": {"id":160,"station":"Roosevelt Island_0","delay":73226263.2798},"geometry": { "type": "Point", "coordinates": [-73.95326, 40.759145]} },
{ "type": "Feature", "properties": {"id":161,"station":"Astor Pl_0","delay":73043151.4635},"geometry": { "type": "Point", "coordinates": [-73.99107, 40.730054]} },
{ "type": "Feature", "properties": {"id":162,"station":"Woodside - 61 St_0","delay":72995189.1262},"geometry": { "type": "Point", "coordinates": [-73.902984, 40.74563]} },
{ "type": "Feature", "properties": {"id":163,"station":"7 Av_0","delay":72854053.0781},"geometry": { "type": "Point", "coordinates": [-73.981637, 40.762862]} },
{ "type": "Feature", "properties": {"id":164,"station":"103 St_1","delay":72578349.9254},"geometry": { "type": "Point", "coordinates": [-73.947478, 40.7906]} },
{ "type": "Feature", "properties": {"id":165,"station":"103 St_0","delay":72558979.5333},"geometry": { "type": "Point", "coordinates": [-73.968379, 40.799446]} },
{ "type": "Feature", "properties": {"id":166,"station":"111 St_1","delay":71798400},"geometry": { "type": "Point", "coordinates": [-73.832163, 40.684331]} },
{ "type": "Feature", "properties": {"id":167,"station":"Jefferson St_0","delay":71756096.3808},"geometry": { "type": "Point", "coordinates": [-73.922913, 40.706607]} },
{ "type": "Feature", "properties": {"id":168,"station":"Jamaica Center - Parsons/Archer_0","delay":71704800},"geometry": { "type": "Point", "coordinates": [-73.801109, 40.702147]} },
{ "type": "Feature", "properties": {"id":169,"station":"E 143 St - St Mary's St_0","delay":71430630},"geometry": { "type": "Point", "coordinates": [-73.907657, 40.808719]} },
{ "type": "Feature", "properties": {"id":170,"station":"Court Sq_0","delay":71234299.4307},"geometry": { "type": "Point", "coordinates": [-73.945274, 40.74731725]} },
{ "type": "Feature", "properties": {"id":171,"station":"5 Av_0","delay":70957085.5063},"geometry": { "type": "Point", "coordinates": [-73.981963, 40.753821]} },
{ "type": "Feature", "properties": {"id":172,"station":"Carroll St_0","delay":69904228.7484},"geometry": { "type": "Point", "coordinates": [-73.995048, 40.680303]} },
{ "type": "Feature", "properties": {"id":173,"station":"E 149 St_0","delay":69693030},"geometry": { "type": "Point", "coordinates": [-73.904098, 40.812118]} },
{ "type": "Feature", "properties": {"id":174,"station":"Wall St_1","delay":69427024.6422},"geometry": { "type": "Point", "coordinates": [-74.011862, 40.707557]} },
{ "type": "Feature", "properties": {"id":175,"station":"34 St - Penn Station_0","delay":69334469.2137},"geometry": { "type": "Point", "coordinates": [-73.991057, 40.750373]} },
{ "type": "Feature", "properties": {"id":176,"station":"23 St_2","delay":69242400},"geometry": { "type": "Point", "coordinates": [-73.998041, 40.745906]} },
{ "type": "Feature", "properties": {"id":177,"station":"167 St_1","delay":68886682.7285},"geometry": { "type": "Point", "coordinates": [-73.91844, 40.833771]} },
{ "type": "Feature", "properties": {"id":178,"station":"96 St_3","delay":68616000},"geometry": { "type": "Point", "coordinates": [-73.947152, 40.784318]} },
{ "type": "Feature", "properties": {"id":179,"station":"Wall St_0","delay":68517244.5069},"geometry": { "type": "Point", "coordinates": [-74.0091, 40.706821]} },
{ "type": "Feature", "properties": {"id":180,"station":"42 St - Bryant Pk_0","delay":68415775.5839},"geometry": { "type": "Point", "coordinates": [-73.984569, 40.754222]} },
{ "type": "Feature", "properties": {"id":181,"station":"Kingsbridge Rd_0","delay":68302800},"geometry": { "type": "Point", "coordinates": [-73.897174, 40.86776]} },
{ "type": "Feature", "properties": {"id":182,"station":"Kingsbridge Rd_1","delay":68158800},"geometry": { "type": "Point", "coordinates": [-73.893509, 40.866978]} },
{ "type": "Feature", "properties": {"id":183,"station":"Chambers St_2","delay":68095239.8832},"geometry": { "type": "Point", "coordinates": [-74.003401, 40.713243]} },
{ "type": "Feature", "properties": {"id":184,"station":"Grand Army Plaza_0","delay":67969126.0632},"geometry": { "type": "Point", "coordinates": [-73.971046, 40.675235]} },
{ "type": "Feature", "properties": {"id":185,"station":"86 St_5","delay":67802400},"geometry": { "type": "Point", "coordinates": [-74.028398, 40.622687]} },
{ "type": "Feature", "properties": {"id":186,"station":"Broad Channel_0","delay":67734000},"geometry": { "type": "Point", "coordinates": [-73.815925, 40.608382]} },
{ "type": "Feature", "properties": {"id":187,"station":"Bergen St_1","delay":67237640.8752},"geometry": { "type": "Point", "coordinates": [-73.990862, 40.686145]} },
{ "type": "Feature", "properties": {"id":188,"station":"Junius St_0","delay":67166647.9676},"geometry": { "type": "Point", "coordinates": [-73.902447, 40.663515]} },
{ "type": "Feature", "properties": {"id":189,"station":"Grand Av - Newtown_0","delay":66977540.4351},"geometry": { "type": "Point", "coordinates": [-73.877223, 40.737015]} },
{ "type": "Feature", "properties": {"id":190,"station":"Gun Hill Rd_0","delay":66902400},"geometry": { "type": "Point", "coordinates": [-73.866256, 40.87785]} },
{ "type": "Feature", "properties": {"id":191,"station":"Sutter Av - Rutland Rd_0","delay":66731112.1369},"geometry": { "type": "Point", "coordinates": [-73.92261, 40.664717]} },
{ "type": "Feature", "properties": {"id":192,"station":"Morgan Av_0","delay":66537789.8682},"geometry": { "type": "Point", "coordinates": [-73.933147, 40.706152]} },
{ "type": "Feature", "properties": {"id":193,"station":"2 Av_0","delay":66341893.2177},"geometry": { "type": "Point", "coordinates": [-73.989938, 40.723402]} },
{ "type": "Feature", "properties": {"id":194,"station":"Nassau Av_0","delay":66148154.9993},"geometry": { "type": "Point", "coordinates": [-73.951277, 40.724635]} },
{ "type": "Feature", "properties": {"id":195,"station":"Broad St_0","delay":65811600},"geometry": { "type": "Point", "coordinates": [-74.011056, 40.706476]} },
{ "type": "Feature", "properties": {"id":196,"station":"Crown Hts - Utica Av_0","delay":65796931.8434},"geometry": { "type": "Point", "coordinates": [-73.932942, 40.668897]} },
{ "type": "Feature", "properties": {"id":197,"station":"Alabama Av_0","delay":65736244.162},"geometry": { "type": "Point", "coordinates": [-73.898654, 40.676992]} },
{ "type": "Feature", "properties": {"id":198,"station":"Westchester Sq - E Tremont Av_0","delay":65628000},"geometry": { "type": "Point", "coordinates": [-73.842952, 40.839892]} },
{ "type": "Feature", "properties": {"id":199,"station":"7 Av_1","delay":65425619.0988},"geometry": { "type": "Point", "coordinates": [-73.972367, 40.67705]} },
{ "type": "Feature", "properties": {"id":200,"station":"Utica Av_0","delay":64742442.7714},"geometry": { "type": "Point", "coordinates": [-73.930729, 40.679364]} },
{ "type": "Feature", "properties": {"id":201,"station":"Jamaica - Van Wyck_0","delay":64636154.1475},"geometry": { "type": "Point", "coordinates": [-73.816859, 40.702566]} },
{ "type": "Feature", "properties": {"id":202,"station":"190 St_0","delay":64605600},"geometry": { "type": "Point", "coordinates": [-73.93418, 40.859022]} },
{ "type": "Feature", "properties": {"id":203,"station":"Elmhurst Av_0","delay":64109968.3062},"geometry": { "type": "Point", "coordinates": [-73.882017, 40.742454]} },
{ "type": "Feature", "properties": {"id":204,"station":"170 St_1","delay":64092502.5651},"geometry": { "type": "Point", "coordinates": [-73.9134, 40.839306]} },
{ "type": "Feature", "properties": {"id":205,"station":"14 St_0","delay":63819488.0385},"geometry": { "type": "Point", "coordinates": [-74.000201, 40.737826]} },
{ "type": "Feature", "properties": {"id":206,"station":"231 St_0","delay":63450000},"geometry": { "type": "Point", "coordinates": [-73.904834, 40.878856]} },
{ "type": "Feature", "properties": {"id":207,"station":"Church Av_2","delay":63429939.9573},"geometry": { "type": "Point", "coordinates": [-73.979678, 40.644041]} },
{ "type": "Feature", "properties": {"id":208,"station":"Gun Hill Rd_1","delay":63025200},"geometry": { "type": "Point", "coordinates": [-73.846384, 40.869526]} },
{ "type": "Feature", "properties": {"id":209,"station":"Brooklyn Bridge - City Hall_0","delay":62264861.1577},"geometry": { "type": "Point", "coordinates": [-74.004131, 40.713065]} },
{ "type": "Feature", "properties": {"id":210,"station":"Canal St_0","delay":61934200.5335},"geometry": { "type": "Point", "coordinates": [-74.0007127778, 40.718793]} },
{ "type": "Feature", "properties": {"id":211,"station":"Dyckman St_1","delay":61869600},"geometry": { "type": "Point", "coordinates": [-73.927271, 40.865491]} },
{ "type": "Feature", "properties": {"id":212,"station":"63 Dr - Rego Park_0","delay":61640328.9881},"geometry": { "type": "Point", "coordinates": [-73.861604, 40.729846]} },
{ "type": "Feature", "properties": {"id":213,"station":"86 St_0","delay":61575123.1476},"geometry": { "type": "Point", "coordinates": [-73.976218, 40.788644]} },
{ "type": "Feature", "properties": {"id":214,"station":"33 St_1","delay":61551943.2831},"geometry": { "type": "Point", "coordinates": [-73.930997, 40.744587]} },
{ "type": "Feature", "properties": {"id":215,"station":"Fresh Pond Rd_0","delay":61534800},"geometry": { "type": "Point", "coordinates": [-73.895877, 40.706186]} },
{ "type": "Feature", "properties": {"id":216,"station":"Pennsylvania Av_0","delay":61520400},"geometry": { "type": "Point", "coordinates": [-73.894895, 40.664635]} },
{ "type": "Feature", "properties": {"id":217,"station":"City Hall_0","delay":61402663.1764},"geometry": { "type": "Point", "coordinates": [-74.006978, 40.713282]} },
{ "type": "Feature", "properties": {"id":218,"station":"Canal St_1","delay":61108841.2039},"geometry": { "type": "Point", "coordinates": [-74.006277, 40.722854]} },
{ "type": "Feature", "properties": {"id":219,"station":"Sheepshead Bay_0","delay":61019640.3817},"geometry": { "type": "Point", "coordinates": [-73.954155, 40.586896]} },
{ "type": "Feature", "properties": {"id":220,"station":"Cathedral Pkwy_0","delay":60959457.2478},"geometry": { "type": "Point", "coordinates": [-73.966847, 40.803967]} },
{ "type": "Feature", "properties": {"id":221,"station":"219 St_0","delay":60602400},"geometry": { "type": "Point", "coordinates": [-73.862633, 40.883895]} },
{ "type": "Feature", "properties": {"id":222,"station":"Woodhaven Blvd_0","delay":60050527.0373},"geometry": { "type": "Point", "coordinates": [-73.869229, 40.733106]} },
{ "type": "Feature", "properties": {"id":223,"station":"50 St_0","delay":60045826.1482},"geometry": { "type": "Point", "coordinates": [-73.983849, 40.761728]} },
{ "type": "Feature", "properties": {"id":224,"station":"68 St - Hunter College_0","delay":59987244.16},"geometry": { "type": "Point", "coordinates": [-73.96387, 40.768141]} },
{ "type": "Feature", "properties": {"id":225,"station":"116 St - Columbia University_0","delay":59418161.3312},"geometry": { "type": "Point", "coordinates": [-73.96411, 40.807722]} },
{ "type": "Feature", "properties": {"id":226,"station":"Spring St_1","delay":59263200},"geometry": { "type": "Point", "coordinates": [-74.003739, 40.726227]} },
{ "type": "Feature", "properties": {"id":227,"station":"Greenpoint Av_0","delay":59249261.2044},"geometry": { "type": "Point", "coordinates": [-73.954449, 40.731352]} },
{ "type": "Feature", "properties": {"id":228,"station":"Saratoga Av_0","delay":58986446.3563},"geometry": { "type": "Point", "coordinates": [-73.916327, 40.661453]} },
{ "type": "Feature", "properties": {"id":229,"station":"49 St_0","delay":58947080.9554},"geometry": { "type": "Point", "coordinates": [-73.984139, 40.759901]} },
{ "type": "Feature", "properties": {"id":230,"station":"28 St_0","delay":58609275.2803},"geometry": { "type": "Point", "coordinates": [-73.993365, 40.747215]} },
{ "type": "Feature", "properties": {"id":231,"station":"86 St_2","delay":58567206.3466},"geometry": { "type": "Point", "coordinates": [-73.968916, 40.785868]} },
{ "type": "Feature", "properties": {"id":232,"station":"Flushing Av_0","delay":58489062.5957},"geometry": { "type": "Point", "coordinates": [-73.950234, 40.700377]} },
{ "type": "Feature", "properties": {"id":233,"station":"Halsey St_1","delay":58486009.0479},"geometry": { "type": "Point", "coordinates": [-73.904084, 40.695602]} },
{ "type": "Feature", "properties": {"id":234,"station":"79 St_0","delay":58464224.2515},"geometry": { "type": "Point", "coordinates": [-73.979917, 40.783934]} },
{ "type": "Feature", "properties": {"id":235,"station":"71 St_0","delay":58120449.0817},"geometry": { "type": "Point", "coordinates": [-73.998864, 40.619589]} },
{ "type": "Feature", "properties": {"id":236,"station":"45 St_0","delay":57938373.5294},"geometry": { "type": "Point", "coordinates": [-74.010006, 40.648939]} },
{ "type": "Feature", "properties": {"id":237,"station":"6 Av_0","delay":57532172.9575},"geometry": { "type": "Point", "coordinates": [-73.996786, 40.737335]} },
{ "type": "Feature", "properties": {"id":238,"station":"Ozone Park - Lefferts Blvd_0","delay":57312000},"geometry": { "type": "Point", "coordinates": [-73.825798, 40.685951]} },
{ "type": "Feature", "properties": {"id":239,"station":"34 St - 11 Av_0","delay":57150000},"geometry": { "type": "Point", "coordinates": [-74.00191, 40.755882]} },
{ "type": "Feature", "properties": {"id":240,"station":"Middletown Rd_0","delay":56973600},"geometry": { "type": "Point", "coordinates": [-73.836322, 40.843863]} },
{ "type": "Feature", "properties": {"id":241,"station":"Christopher St - Sheridan Sq_0","delay":56972626.36},"geometry": { "type": "Point", "coordinates": [-74.002906, 40.733422]} },
{ "type": "Feature", "properties": {"id":242,"station":"Ditmas Av_0","delay":56959917.8421},"geometry": { "type": "Point", "coordinates": [-73.978172, 40.636119]} },
{ "type": "Feature", "properties": {"id":243,"station":"8 St - NYU_0","delay":56875761.3319},"geometry": { "type": "Point", "coordinates": [-73.992629, 40.730328]} },
{ "type": "Feature", "properties": {"id":244,"station":"125 St_1","delay":56579029.0701},"geometry": { "type": "Point", "coordinates": [-73.945495, 40.807754]} },
{ "type": "Feature", "properties": {"id":245,"station":"Crescent St_0","delay":56555051.8408},"geometry": { "type": "Point", "coordinates": [-73.873785, 40.683194]} },
{ "type": "Feature", "properties": {"id":246,"station":"Beach 67 St_0","delay":56296800},"geometry": { "type": "Point", "coordinates": [-73.796924, 40.590927]} },
{ "type": "Feature", "properties": {"id":247,"station":"96 St_2","delay":56208765.2855},"geometry": { "type": "Point", "coordinates": [-73.964696, 40.791642]} },
{ "type": "Feature", "properties": {"id":248,"station":"62 St_0","delay":56105368.1709},"geometry": { "type": "Point", "coordinates": [-73.996895, 40.626472]} },
{ "type": "Feature", "properties": {"id":249,"station":"High St_0","delay":55970711.4364},"geometry": { "type": "Point", "coordinates": [-73.990531, 40.699337]} },
{ "type": "Feature", "properties": {"id":250,"station":"Marcy Av_0","delay":55633364.3575},"geometry": { "type": "Point", "coordinates": [-73.957757, 40.708359]} },
{ "type": "Feature", "properties": {"id":251,"station":"8 Av_1","delay":55625526.6202},"geometry": { "type": "Point", "coordinates": [-74.011719, 40.635064]} },
{ "type": "Feature", "properties": {"id":252,"station":"18 St_0","delay":55611560.0183},"geometry": { "type": "Point", "coordinates": [-73.997871, 40.74104]} },
{ "type": "Feature", "properties": {"id":253,"station":"Hoyt St_0","delay":55488671.9448},"geometry": { "type": "Point", "coordinates": [-73.985065, 40.690545]} },
{ "type": "Feature", "properties": {"id":254,"station":"40 St_0","delay":55275831.982},"geometry": { "type": "Point", "coordinates": [-73.924016, 40.743781]} },
{ "type": "Feature", "properties": {"id":255,"station":"Prince St_0","delay":55147457.1325},"geometry": { "type": "Point", "coordinates": [-73.997702, 40.724329]} },
{ "type": "Feature", "properties": {"id":256,"station":"York St_0","delay":54833261.3074},"geometry": { "type": "Point", "coordinates": [-73.986751, 40.701397]} },
{ "type": "Feature", "properties": {"id":257,"station":"Lexington Av/59 St_0","delay":54673191.5936},"geometry": { "type": "Point", "coordinates": [-73.967258, 40.76266]} },
{ "type": "Feature", "properties": {"id":258,"station":"Beach 60 St_0","delay":54338400},"geometry": { "type": "Point", "coordinates": [-73.788522, 40.592374]} },
{ "type": "Feature", "properties": {"id":259,"station":"Bowery_0","delay":54310906.9932},"geometry": { "type": "Point", "coordinates": [-73.993915, 40.72028]} },
{ "type": "Feature", "properties": {"id":260,"station":"Classon Av_0","delay":54298630.7987},"geometry": { "type": "Point", "coordinates": [-73.96007, 40.688873]} },
{ "type": "Feature", "properties": {"id":261,"station":"65 St_0","delay":54168869.5928},"geometry": { "type": "Point", "coordinates": [-73.898453, 40.749669]} },
{ "type": "Feature", "properties": {"id":262,"station":"96 St_1","delay":54144580.0512},"geometry": { "type": "Point", "coordinates": [-73.95107, 40.785672]} },
{ "type": "Feature", "properties": {"id":263,"station":"Queens Plaza_0","delay":53771059.3572},"geometry": { "type": "Point", "coordinates": [-73.937243, 40.748973]} },
{ "type": "Feature", "properties": {"id":264,"station":"DeKalb Av_0","delay":53619543.1434},"geometry": { "type": "Point", "coordinates": [-73.981824, 40.690635]} },
{ "type": "Feature", "properties": {"id":265,"station":"Bedford Park Blvd - Lehman College_0","delay":53499600},"geometry": { "type": "Point", "coordinates": [-73.890064, 40.873412]} },
{ "type": "Feature", "properties": {"id":266,"station":"79 St_1","delay":53376645.6205},"geometry": { "type": "Point", "coordinates": [-74.00061, 40.613501]} },
{ "type": "Feature", "properties": {"id":267,"station":"18 Av_2","delay":53198433.2836},"geometry": { "type": "Point", "coordinates": [-73.990414, 40.620671]} },
{ "type": "Feature", "properties": {"id":268,"station":"46 St_0","delay":53097145.5939},"geometry": { "type": "Point", "coordinates": [-73.918435, 40.743132]} },
{ "type": "Feature", "properties": {"id":269,"station":"174-175 Sts_0","delay":53089620},"geometry": { "type": "Point", "coordinates": [-73.910136, 40.8459]} },
{ "type": "Feature", "properties": {"id":270,"station":"Kosciuszko St_0","delay":52977652.576},"geometry": { "type": "Point", "coordinates": [-73.928814, 40.693342]} },
{ "type": "Feature", "properties": {"id":271,"station":"72 St_1","delay":52508757.0201},"geometry": { "type": "Point", "coordinates": [-73.97641, 40.775594]} },
{ "type": "Feature", "properties": {"id":272,"station":"Woodhaven Blvd_1","delay":52362135.7522},"geometry": { "type": "Point", "coordinates": [-73.851576, 40.693879]} },
{ "type": "Feature", "properties": {"id":273,"station":"157 St_0","delay":52015411.642},"geometry": { "type": "Point", "coordinates": [-73.94489, 40.834041]} },
{ "type": "Feature", "properties": {"id":274,"station":"Borough Hall_0","delay":52013009.5235},"geometry": { "type": "Point", "coordinates": [-73.9900898, 40.69273]} },
{ "type": "Feature", "properties": {"id":275,"station":"238 St_0","delay":51948000},"geometry": { "type": "Point", "coordinates": [-73.90087, 40.884667]} },
{ "type": "Feature", "properties": {"id":276,"station":"Kingston - Throop Avs_0","delay":51810511.3489},"geometry": { "type": "Point", "coordinates": [-73.940858, 40.679921]} },
{ "type": "Feature", "properties": {"id":277,"station":"Delancey St_0","delay":51665992.2122},"geometry": { "type": "Point", "coordinates": [-73.988114, 40.718611]} },
{ "type": "Feature", "properties": {"id":278,"station":"Beach 44 St_0","delay":51580800},"geometry": { "type": "Point", "coordinates": [-73.776013, 40.592943]} },
{ "type": "Feature", "properties": {"id":279,"station":"225 St_0","delay":51559200},"geometry": { "type": "Point", "coordinates": [-73.860341, 40.888022]} },
{ "type": "Feature", "properties": {"id":280,"station":"116 St_1","delay":51528139.7249},"geometry": { "type": "Point", "coordinates": [-73.941617, 40.798629]} },
{ "type": "Feature", "properties": {"id":281,"station":"Fort Hamilton Pkwy_0","delay":51349658.6189},"geometry": { "type": "Point", "coordinates": [-73.994304, 40.640914]} },
{ "type": "Feature", "properties": {"id":282,"station":"Bedford Park Blvd_0","delay":51339600},"geometry": { "type": "Point", "coordinates": [-73.887138, 40.873244]} },
{ "type": "Feature", "properties": {"id":283,"station":"Wilson Av_0","delay":51125276.1741},"geometry": { "type": "Point", "coordinates": [-73.904046, 40.688764]} },
{ "type": "Feature", "properties": {"id":284,"station":"Chambers St_0","delay":51113108.3045},"geometry": { "type": "Point", "coordinates": [-74.009266, 40.715478]} },
{ "type": "Feature", "properties": {"id":285,"station":"137 St - City College_0","delay":50883409.95},"geometry": { "type": "Point", "coordinates": [-73.953676, 40.822008]} },
{ "type": "Feature", "properties": {"id":286,"station":"138 St - Grand Concourse_0","delay":50784017.5104},"geometry": { "type": "Point", "coordinates": [-73.929849, 40.813224]} },
{ "type": "Feature", "properties": {"id":287,"station":"Baychester Av_0","delay":50562000},"geometry": { "type": "Point", "coordinates": [-73.838591, 40.878663]} },
{ "type": "Feature", "properties": {"id":288,"station":"Van Siclen Av_0","delay":50320800},"geometry": { "type": "Point", "coordinates": [-73.889395, 40.665449]} },
{ "type": "Feature", "properties": {"id":289,"station":"Metropolitan Av_0","delay":50134024.2873},"geometry": { "type": "Point", "coordinates": [-73.951418, 40.712792]} },
{ "type": "Feature", "properties": {"id":290,"station":"Union St_0","delay":49906137.5782},"geometry": { "type": "Point", "coordinates": [-73.98311, 40.677316]} },
{ "type": "Feature", "properties": {"id":291,"station":"Clinton - Washington Avs_1","delay":49832942.2758},"geometry": { "type": "Point", "coordinates": [-73.966839, 40.688089]} },
{ "type": "Feature", "properties": {"id":292,"station":"Bay Ridge - 95 St_0","delay":49820400},"geometry": { "type": "Point", "coordinates": [-74.030876, 40.616622]} },
{ "type": "Feature", "properties": {"id":293,"station":"Cortlandt St_1","delay":49765791.2792},"geometry": { "type": "Point", "coordinates": [-74.011029, 40.710668]} },
{ "type": "Feature", "properties": {"id":294,"station":"46 St_1","delay":49639438.2179},"geometry": { "type": "Point", "coordinates": [-73.913333, 40.756312]} },
{ "type": "Feature", "properties": {"id":295,"station":"Central Park North (110 St)_0","delay":49482096.335},"geometry": { "type": "Point", "coordinates": [-73.951822, 40.799075]} },
{ "type": "Feature", "properties": {"id":296,"station":"New Utrecht Av_0","delay":49213673.1492},"geometry": { "type": "Point", "coordinates": [-73.996353, 40.624842]} },
{ "type": "Feature", "properties": {"id":297,"station":"145 St_1","delay":49097575.5022},"geometry": { "type": "Point", "coordinates": [-73.95036, 40.826551]} },
{ "type": "Feature", "properties": {"id":298,"station":"57 St_0","delay":49029851.7875},"geometry": { "type": "Point", "coordinates": [-73.97745, 40.763972]} },
{ "type": "Feature", "properties": {"id":299,"station":"Avenue U_2","delay":48814917.6471},"geometry": { "type": "Point", "coordinates": [-73.955929, 40.5993]} },
{ "type": "Feature", "properties": {"id":300,"station":"Beverley Rd_0","delay":48162075},"geometry": { "type": "Point", "coordinates": [-73.964492, 40.644031]} },
{ "type": "Feature", "properties": {"id":301,"station":"52 St_0","delay":48125295.8811},"geometry": { "type": "Point", "coordinates": [-73.912549, 40.744149]} },
{ "type": "Feature", "properties": {"id":302,"station":"125 St_0","delay":48121497.7809},"geometry": { "type": "Point", "coordinates": [-73.958372, 40.815581]} },
{ "type": "Feature", "properties": {"id":303,"station":"Neck Rd_0","delay":48012588.8235},"geometry": { "type": "Point", "coordinates": [-73.955161, 40.595246]} },
{ "type": "Feature", "properties": {"id":304,"station":"Elder Av_0","delay":47899410},"geometry": { "type": "Point", "coordinates": [-73.879159, 40.828584]} },
{ "type": "Feature", "properties": {"id":305,"station":"Grand St_0","delay":47830076.8647},"geometry": { "type": "Point", "coordinates": [-73.993753, 40.718267]} },
{ "type": "Feature", "properties": {"id":306,"station":"Buhre Av_0","delay":47786400},"geometry": { "type": "Point", "coordinates": [-73.832569, 40.84681]} },
{ "type": "Feature", "properties": {"id":307,"station":"Middle Village - Metropolitan Av_0","delay":47707200},"geometry": { "type": "Point", "coordinates": [-73.889601, 40.711396]} },
{ "type": "Feature", "properties": {"id":308,"station":"Myrtle Av_0","delay":47539080.5565},"geometry": { "type": "Point", "coordinates": [-73.935657, 40.697207]} },
{ "type": "Feature", "properties": {"id":309,"station":"81 St - Museum of Natural History_0","delay":47437856.5585},"geometry": { "type": "Point", "coordinates": [-73.972143, 40.781433]} },
{ "type": "Feature", "properties": {"id":310,"station":"75 Av_0","delay":47149200},"geometry": { "type": "Point", "coordinates": [-73.837324, 40.718331]} },
{ "type": "Feature", "properties": {"id":311,"station":"110 St_0","delay":46798237.9771},"geometry": { "type": "Point", "coordinates": [-73.94425, 40.79502]} },
{ "type": "Feature", "properties": {"id":312,"station":"Coney Island - Stillwell Av_0","delay":46699045.9348},"geometry": { "type": "Point", "coordinates": [-73.981233, 40.577422]} },
{ "type": "Feature", "properties": {"id":313,"station":"Bay Pkwy_2","delay":46673230.6182},"geometry": { "type": "Point", "coordinates": [-73.981848, 40.611815]} },
{ "type": "Feature", "properties": {"id":314,"station":"Parkside Av_0","delay":46533928.8116},"geometry": { "type": "Point", "coordinates": [-73.961495, 40.655292]} },
{ "type": "Feature", "properties": {"id":315,"station":"Mosholu Pkwy_0","delay":46332000},"geometry": { "type": "Point", "coordinates": [-73.884655, 40.87975]} },
{ "type": "Feature", "properties": {"id":316,"station":"Prospect Av_0","delay":46261441.3126},"geometry": { "type": "Point", "coordinates": [-73.90177, 40.819585]} },
{ "type": "Feature", "properties": {"id":317,"station":"20 Av_1","delay":46085194.4696},"geometry": { "type": "Point", "coordinates": [-73.985026, 40.61741]} },
{ "type": "Feature", "properties": {"id":318,"station":"121 St_0","delay":46068462.0467},"geometry": { "type": "Point", "coordinates": [-73.828294, 40.700492]} },
{ "type": "Feature", "properties": {"id":319,"station":"Brighton Beach_0","delay":45967299.878},"geometry": { "type": "Point", "coordinates": [-73.961376, 40.577621]} },
{ "type": "Feature", "properties": {"id":320,"station":"Sutter Av_0","delay":45927003.6922},"geometry": { "type": "Point", "coordinates": [-73.901975, 40.669367]} },
{ "type": "Feature", "properties": {"id":321,"station":"21 St_0","delay":45691698.0225},"geometry": { "type": "Point", "coordinates": [-73.949724, 40.744065]} },
{ "type": "Feature", "properties": {"id":322,"station":"Beach 36 St_0","delay":45662400},"geometry": { "type": "Point", "coordinates": [-73.768175, 40.595398]} },
{ "type": "Feature", "properties": {"id":323,"station":"Bowling Green_0","delay":45655559.0758},"geometry": { "type": "Point", "coordinates": [-74.014065, 40.704817]} },
{ "type": "Feature", "properties": {"id":324,"station":"Atlantic Av_0","delay":45648738.3674},"geometry": { "type": "Point", "coordinates": [-73.903097, 40.675345]} },
{ "type": "Feature", "properties": {"id":325,"station":"Halsey St_0","delay":45593653.7485},"geometry": { "type": "Point", "coordinates": [-73.916559, 40.68637]} },
{ "type": "Feature", "properties": {"id":326,"station":"233 St_0","delay":45586800},"geometry": { "type": "Point", "coordinates": [-73.857473, 40.893193]} },
{ "type": "Feature", "properties": {"id":327,"station":"53 St_0","delay":45558985},"geometry": { "type": "Point", "coordinates": [-74.014034, 40.645069]} },
{ "type": "Feature", "properties": {"id":328,"station":"Bedford - Nostrand Avs_0","delay":45486446.6749},"geometry": { "type": "Point", "coordinates": [-73.953522, 40.689627]} },
{ "type": "Feature", "properties": {"id":329,"station":"Gates Av_0","delay":45455233.9415},"geometry": { "type": "Point", "coordinates": [-73.92227, 40.68963]} },
{ "type": "Feature", "properties": {"id":330,"station":"Chambers St_1","delay":45311063.2263},"geometry": { "type": "Point", "coordinates": [-74.008585, 40.714111]} },
{ "type": "Feature", "properties": {"id":331,"station":"Jackson Av_0","delay":45252502.4811},"geometry": { "type": "Point", "coordinates": [-73.907807, 40.81649]} },
{ "type": "Feature", "properties": {"id":332,"station":"14 St_1","delay":45168936.1825},"geometry": { "type": "Point", "coordinates": [-74.00169, 40.740893]} },
{ "type": "Feature", "properties": {"id":333,"station":"Kingston Av_0","delay":45102960},"geometry": { "type": "Point", "coordinates": [-73.942161, 40.669399]} },
{ "type": "Feature", "properties": {"id":334,"station":"116 St_2","delay":44997257.4135},"geometry": { "type": "Point", "coordinates": [-73.954882, 40.805085]} },
{ "type": "Feature", "properties": {"id":335,"station":"Bushwick Av - Aberdeen St_0","delay":44920360.6616},"geometry": { "type": "Point", "coordinates": [-73.905249, 40.682829]} },
{ "type": "Feature", "properties": {"id":336,"station":"Prospect Av_1","delay":44668166.841},"geometry": { "type": "Point", "coordinates": [-73.992872, 40.665414]} },
{ "type": "Feature", "properties": {"id":337,"station":"St Lawrence Av_0","delay":44583210},"geometry": { "type": "Point", "coordinates": [-73.867618, 40.831509]} },
{ "type": "Feature", "properties": {"id":338,"station":"18 Av_0","delay":44365877.5953},"geometry": { "type": "Point", "coordinates": [-74.001736, 40.607954]} },
{ "type": "Feature", "properties": {"id":339,"station":"Beach 25 St_0","delay":44334000},"geometry": { "type": "Point", "coordinates": [-73.761353, 40.600066]} },
{ "type": "Feature", "properties": {"id":340,"station":"9 Av_0","delay":44321812.6545},"geometry": { "type": "Point", "coordinates": [-73.994324, 40.646292]} },
{ "type": "Feature", "properties": {"id":341,"station":"85 St - Forest Pkwy_0","delay":44300606.4285},"geometry": { "type": "Point", "coordinates": [-73.86001, 40.692435]} },
{ "type": "Feature", "properties": {"id":342,"station":"New Lots Av_0","delay":43945200},"geometry": { "type": "Point", "coordinates": [-73.884079, 40.666235]} },
{ "type": "Feature", "properties": {"id":343,"station":"155 St_1","delay":43777288.7834},"geometry": { "type": "Point", "coordinates": [-73.938209, 40.830135]} },
{ "type": "Feature", "properties": {"id":344,"station":"Steinway St_0","delay":43753446.5713},"geometry": { "type": "Point", "coordinates": [-73.92074, 40.756879]} },
{ "type": "Feature", "properties": {"id":345,"station":"Park Pl_0","delay":43601600.5169},"geometry": { "type": "Point", "coordinates": [-74.008811, 40.713051]} },
{ "type": "Feature", "properties": {"id":346,"station":"36 St_1","delay":42961635.9864},"geometry": { "type": "Point", "coordinates": [-73.928781, 40.752039]} },
{ "type": "Feature", "properties": {"id":347,"station":"Hewes St_0","delay":42781165.2627},"geometry": { "type": "Point", "coordinates": [-73.953431, 40.70687]} },
{ "type": "Feature", "properties": {"id":348,"station":"Intervale Av_0","delay":42747137.2631},"geometry": { "type": "Point", "coordinates": [-73.896736, 40.822181]} },
{ "type": "Feature", "properties": {"id":349,"station":"163 St - Amsterdam Av_0","delay":42635180.7155},"geometry": { "type": "Point", "coordinates": [-73.939892, 40.836013]} },
{ "type": "Feature", "properties": {"id":350,"station":"9 St_0","delay":42549467.4153},"geometry": { "type": "Point", "coordinates": [-73.988302, 40.670847]} },
{ "type": "Feature", "properties": {"id":351,"station":"Hunters Point Av_0","delay":42139003.9563},"geometry": { "type": "Point", "coordinates": [-73.948916, 40.742216]} },
{ "type": "Feature", "properties": {"id":352,"station":"23 St_4","delay":42105713.9613},"geometry": { "type": "Point", "coordinates": [-73.989344, 40.741303]} },
{ "type": "Feature", "properties": {"id":353,"station":"111 St_2","delay":42083662.5809},"geometry": { "type": "Point", "coordinates": [-73.836345, 40.697418]} },
{ "type": "Feature", "properties": {"id":354,"station":"Fort Hamilton Pkwy_2","delay":42063405.6851},"geometry": { "type": "Point", "coordinates": [-74.005351, 40.631386]} },
{ "type": "Feature", "properties": {"id":355,"station":"Myrtle - Willoughby Avs_0","delay":42061251.0976},"geometry": { "type": "Point", "coordinates": [-73.949046, 40.694568]} },
{ "type": "Feature", "properties": {"id":356,"station":"145 St_2","delay":42040800},"geometry": { "type": "Point", "coordinates": [-73.936245, 40.820421]} },
{ "type": "Feature", "properties": {"id":357,"station":"Fulton St_2","delay":41729857.3426},"geometry": { "type": "Point", "coordinates": [-73.975375, 40.687119]} },
{ "type": "Feature", "properties": {"id":358,"station":"75 St_0","delay":41718322.4741},"geometry": { "type": "Point", "coordinates": [-73.867139, 40.691324]} },
{ "type": "Feature", "properties": {"id":359,"station":"Lorimer St_0","delay":41705991.0908},"geometry": { "type": "Point", "coordinates": [-73.947408, 40.703869]} },
{ "type": "Feature", "properties": {"id":360,"station":"104 St_1","delay":41436350.2478},"geometry": { "type": "Point", "coordinates": [-73.84433, 40.695178]} },
{ "type": "Feature", "properties": {"id":361,"station":"Smith - 9 Sts_0","delay":41319493.5951},"geometry": { "type": "Point", "coordinates": [-73.995959, 40.67358]} },
{ "type": "Feature", "properties": {"id":362,"station":"21 St - Queensbridge_0","delay":41248048.8818},"geometry": { "type": "Point", "coordinates": [-73.942836, 40.754203]} },
{ "type": "Feature", "properties": {"id":363,"station":"20 Av_0","delay":41242785.7036},"geometry": { "type": "Point", "coordinates": [-73.998168, 40.604556]} },
{ "type": "Feature", "properties": {"id":364,"station":"Clark St_0","delay":41214514.9634},"geometry": { "type": "Point", "coordinates": [-73.993086, 40.697466]} },
{ "type": "Feature", "properties": {"id":365,"station":"Park Pl_1","delay":40946755.4819},"geometry": { "type": "Point", "coordinates": [-73.957624, 40.674772]} },
{ "type": "Feature", "properties": {"id":366,"station":"Kings Hwy_2","delay":40945732.9783},"geometry": { "type": "Point", "coordinates": [-73.980353, 40.603923]} },
{ "type": "Feature", "properties": {"id":367,"station":"Cleveland St_0","delay":40870373.9258},"geometry": { "type": "Point", "coordinates": [-73.884639, 40.679947]} },
{ "type": "Feature", "properties": {"id":368,"station":"Flushing Av_1","delay":40443009.7625},"geometry": { "type": "Point", "coordinates": [-73.941126, 40.70026]} },
{ "type": "Feature", "properties": {"id":369,"station":"Ralph Av_0","delay":40218982.6169},"geometry": { "type": "Point", "coordinates": [-73.920786, 40.678822]} },
{ "type": "Feature", "properties": {"id":370,"station":"Northern Blvd_0","delay":40131449.3482},"geometry": { "type": "Point", "coordinates": [-73.906006, 40.752885]} },
{ "type": "Feature", "properties": {"id":371,"station":"Clinton - Washington Avs_0","delay":39965433.7255},"geometry": { "type": "Point", "coordinates": [-73.965838, 40.683263]} },
{ "type": "Feature", "properties": {"id":372,"station":"25 St_0","delay":39932345.7468},"geometry": { "type": "Point", "coordinates": [-73.998091, 40.660397]} },
{ "type": "Feature", "properties": {"id":373,"station":"Lafayette Av_0","delay":39777854.9342},"geometry": { "type": "Point", "coordinates": [-73.973946, 40.686113]} },
{ "type": "Feature", "properties": {"id":374,"station":"Broadway_0","delay":39715303.014},"geometry": { "type": "Point", "coordinates": [-73.950308, 40.706092]} },
{ "type": "Feature", "properties": {"id":375,"station":"23 St_0","delay":39704414.9108},"geometry": { "type": "Point", "coordinates": [-73.995657, 40.744081]} },
{ "type": "Feature", "properties": {"id":376,"station":"Avenue M_0","delay":39650853.9706},"geometry": { "type": "Point", "coordinates": [-73.959399, 40.617618]} },
{ "type": "Feature", "properties": {"id":377,"station":"World Trade Center_0","delay":39639600},"geometry": { "type": "Point", "coordinates": [-74.009781, 40.712582]} },
{ "type": "Feature", "properties": {"id":378,"station":"Morrison Av- Sound View_0","delay":39627600},"geometry": { "type": "Point", "coordinates": [-73.874516, 40.829521]} },
{ "type": "Feature", "properties": {"id":379,"station":"Far Rockaway - Mott Av_0","delay":39578400},"geometry": { "type": "Point", "coordinates": [-73.755405, 40.603995]} },
{ "type": "Feature", "properties": {"id":380,"station":"103 St_2","delay":39508428.0144},"geometry": { "type": "Point", "coordinates": [-73.961454, 40.796092]} },
{ "type": "Feature", "properties": {"id":381,"station":"116 St_0","delay":39373563.0802},"geometry": { "type": "Point", "coordinates": [-73.949625, 40.802098]} },
{ "type": "Feature", "properties": {"id":382,"station":"Inwood - 207 St_0","delay":39337200},"geometry": { "type": "Point", "coordinates": [-73.919899, 40.868072]} },
{ "type": "Feature", "properties": {"id":383,"station":"Cathedral Pkwy (110 St)_0","delay":39314875.4733},"geometry": { "type": "Point", "coordinates": [-73.958161, 40.800603]} },
{ "type": "Feature", "properties": {"id":384,"station":"Avenue P_0","delay":39263428.0874},"geometry": { "type": "Point", "coordinates": [-73.973022, 40.608944]} },
{ "type": "Feature", "properties": {"id":385,"station":"182-183 Sts_0","delay":38926800},"geometry": { "type": "Point", "coordinates": [-73.900741, 40.856093]} },
{ "type": "Feature", "properties": {"id":386,"station":"Botanic Garden_0","delay":38864585.3497},"geometry": { "type": "Point", "coordinates": [-73.959245, 40.670343]} },
{ "type": "Feature", "properties": {"id":387,"station":"Nevins St_0","delay":38819347.8334},"geometry": { "type": "Point", "coordinates": [-73.980492, 40.688246]} },
{ "type": "Feature", "properties": {"id":388,"station":"Pelham Bay Park_0","delay":38599200},"geometry": { "type": "Point", "coordinates": [-73.828121, 40.852462]} },
{ "type": "Feature", "properties": {"id":389,"station":"Van Cortlandt Park - 242 St_0","delay":38592000},"geometry": { "type": "Point", "coordinates": [-73.898583, 40.889248]} },
{ "type": "Feature", "properties": {"id":390,"station":"Nereid Av_0","delay":38588400},"geometry": { "type": "Point", "coordinates": [-73.854376, 40.898379]} },
{ "type": "Feature", "properties": {"id":391,"station":"Rockaway Av_0","delay":38587317.875},"geometry": { "type": "Point", "coordinates": [-73.908946, 40.662549]} },
{ "type": "Feature", "properties": {"id":392,"station":"50 St_2","delay":38495243.9491},"geometry": { "type": "Point", "coordinates": [-73.994791, 40.63626]} },
{ "type": "Feature", "properties": {"id":393,"station":"Avenue I_0","delay":38184002.9859},"geometry": { "type": "Point", "coordinates": [-73.976127, 40.625322]} },
{ "type": "Feature", "properties": {"id":394,"station":"Ocean Pkwy_0","delay":38151571.6455},"geometry": { "type": "Point", "coordinates": [-73.968501, 40.576312]} },
{ "type": "Feature", "properties": {"id":395,"station":"25 Av_0","delay":38139175.8938},"geometry": { "type": "Point", "coordinates": [-73.986829, 40.597704]} },
{ "type": "Feature", "properties": {"id":396,"station":"18 Av_1","delay":38094921.88},"geometry": { "type": "Point", "coordinates": [-73.976971, 40.629755]} },
{ "type": "Feature", "properties": {"id":397,"station":"Bay Pkwy_0","delay":37687092.6844},"geometry": { "type": "Point", "coordinates": [-73.993728, 40.601875]} },
{ "type": "Feature", "properties": {"id":398,"station":"Avenue N_0","delay":37675979.4752},"geometry": { "type": "Point", "coordinates": [-73.974197, 40.61514]} },
{ "type": "Feature", "properties": {"id":399,"station":"West Farms Sq - E Tremont Av_0","delay":37374209.7996},"geometry": { "type": "Point", "coordinates": [-73.880049, 40.840295]} },
{ "type": "Feature", "properties": {"id":400,"station":"Franklin Av_0","delay":37025887.1287},"geometry": { "type": "Point", "coordinates": [-73.9565076667, 40.6811186667]} },
{ "type": "Feature", "properties": {"id":401,"station":"Cypress Hills_0","delay":36967592.0328},"geometry": { "type": "Point", "coordinates": [-73.87255, 40.689941]} },
{ "type": "Feature", "properties": {"id":402,"station":"Shepherd Av_0","delay":36937050},"geometry": { "type": "Point", "coordinates": [-73.88075, 40.67413]} },
{ "type": "Feature", "properties": {"id":403,"station":"174 St_0","delay":36701312.7748},"geometry": { "type": "Point", "coordinates": [-73.887734, 40.837288]} },
{ "type": "Feature", "properties": {"id":404,"station":"Chauncey St_0","delay":36633889.8376},"geometry": { "type": "Point", "coordinates": [-73.910456, 40.682893]} },
{ "type": "Feature", "properties": {"id":405,"station":"Van Siclen Av_2","delay":36379224.2609},"geometry": { "type": "Point", "coordinates": [-73.891688, 40.678024]} },
{ "type": "Feature", "properties": {"id":406,"station":"Freeman St_0","delay":35775644.6914},"geometry": { "type": "Point", "coordinates": [-73.891865, 40.829993]} },
{ "type": "Feature", "properties": {"id":407,"station":"Norwood Av_0","delay":35713152.8725},"geometry": { "type": "Point", "coordinates": [-73.880039, 40.68141]} },
{ "type": "Feature", "properties": {"id":408,"station":"W 8 St - NY Aquarium_0","delay":35328599.4582},"geometry": { "type": "Point", "coordinates": [-73.975939, 40.576127]} },
{ "type": "Feature", "properties": {"id":409,"station":"Whitlock Av_0","delay":35153760},"geometry": { "type": "Point", "coordinates": [-73.886283, 40.826525]} },
{ "type": "Feature", "properties": {"id":410,"station":"Beach 90 St_0","delay":34981200},"geometry": { "type": "Point", "coordinates": [-73.813641, 40.588034]} },
{ "type": "Feature", "properties": {"id":411,"station":"Spring St_0","delay":34884353.5047},"geometry": { "type": "Point", "coordinates": [-73.997141, 40.722301]} },
{ "type": "Feature", "properties": {"id":412,"station":"Bleecker St_0","delay":34770610.8354},"geometry": { "type": "Point", "coordinates": [-73.994659, 40.725915]} },
{ "type": "Feature", "properties": {"id":413,"station":"Harlem - 148 St_0","delay":34722000},"geometry": { "type": "Point", "coordinates": [-73.93647, 40.82388]} },
{ "type": "Feature", "properties": {"id":414,"station":"69 St_0","delay":34707921.4444},"geometry": { "type": "Point", "coordinates": [-73.896403, 40.746325]} },
{ "type": "Feature", "properties": {"id":415,"station":"55 St_0","delay":34610989.4835},"geometry": { "type": "Point", "coordinates": [-73.995476, 40.631435]} },
{ "type": "Feature", "properties": {"id":416,"station":"Bay Pkwy_1","delay":34471084.1547},"geometry": { "type": "Point", "coordinates": [-73.975264, 40.620769]} },
{ "type": "Feature", "properties": {"id":417,"station":"Norwood - 205 St_0","delay":34178400},"geometry": { "type": "Point", "coordinates": [-73.878855, 40.874811]} },
{ "type": "Feature", "properties": {"id":418,"station":"Nostrand Av_0","delay":33896460},"geometry": { "type": "Point", "coordinates": [-73.950466, 40.669847]} },
{ "type": "Feature", "properties": {"id":419,"station":"Kings Hwy_1","delay":33834222.1202},"geometry": { "type": "Point", "coordinates": [-73.972361, 40.603217]} },
{ "type": "Feature", "properties": {"id":420,"station":"Vernon Blvd - Jackson Av_0","delay":33763943.9672},"geometry": { "type": "Point", "coordinates": [-73.953581, 40.742626]} },
{ "type": "Feature", "properties": {"id":421,"station":"Eastern Pkwy - Brooklyn Museum_0","delay":33590255.8345},"geometry": { "type": "Point", "coordinates": [-73.964375, 40.671987]} },
{ "type": "Feature", "properties": {"id":422,"station":"Simpson St_0","delay":33584467.6912},"geometry": { "type": "Point", "coordinates": [-73.893064, 40.824073]} },
{ "type": "Feature", "properties": {"id":423,"station":"Wakefield - 241 St_0","delay":33260400},"geometry": { "type": "Point", "coordinates": [-73.85062, 40.903125]} },
{ "type": "Feature", "properties": {"id":424,"station":"Avenue H_0","delay":32931408.0882},"geometry": { "type": "Point", "coordinates": [-73.961639, 40.62927]} },
{ "type": "Feature", "properties": {"id":425,"station":"Avenue J_0","delay":32902627.5},"geometry": { "type": "Point", "coordinates": [-73.960803, 40.625039]} },
{ "type": "Feature", "properties": {"id":426,"station":"Avenue X_0","delay":32785147.4796},"geometry": { "type": "Point", "coordinates": [-73.97425, 40.58962]} },
{ "type": "Feature", "properties": {"id":427,"station":"Woodlawn_0","delay":32662800},"geometry": { "type": "Point", "coordinates": [-73.878751, 40.886037]} },
{ "type": "Feature", "properties": {"id":428,"station":"155 St_0","delay":32422462.144},"geometry": { "type": "Point", "coordinates": [-73.941514, 40.830518]} },
{ "type": "Feature", "properties": {"id":429,"station":"Bergen St_0","delay":32373594.7049},"geometry": { "type": "Point", "coordinates": [-73.975098, 40.680829]} },
{ "type": "Feature", "properties": {"id":430,"station":"135 St_1","delay":32340690},"geometry": { "type": "Point", "coordinates": [-73.947649, 40.817894]} },
{ "type": "Feature", "properties": {"id":431,"station":"Neptune Av_0","delay":32018522.1172},"geometry": { "type": "Point", "coordinates": [-73.974574, 40.581011]} },
{ "type": "Feature", "properties": {"id":432,"station":"Avenue U_0","delay":32006360.2963},"geometry": { "type": "Point", "coordinates": [-73.973357, 40.596063]} },
{ "type": "Feature", "properties": {"id":433,"station":"Cortelyou Rd_0","delay":31873404.9419},"geometry": { "type": "Point", "coordinates": [-73.963891, 40.640927]} },
{ "type": "Feature", "properties": {"id":434,"station":"Beach 98 St_0","delay":31730400},"geometry": { "type": "Point", "coordinates": [-73.820558, 40.585307]} },
{ "type": "Feature", "properties": {"id":435,"station":"Eastchester - Dyre Av_0","delay":31701600},"geometry": { "type": "Point", "coordinates": [-73.830834, 40.8883]} },
{ "type": "Feature", "properties": {"id":436,"station":"Rockaway Av_1","delay":31214517.8571},"geometry": { "type": "Point", "coordinates": [-73.911946, 40.67834]} },
{ "type": "Feature", "properties": {"id":437,"station":"86 St_3","delay":31009347.1043},"geometry": { "type": "Point", "coordinates": [-73.97823, 40.592721]} },
{ "type": "Feature", "properties": {"id":438,"station":"Avenue U_1","delay":30874713.9867},"geometry": { "type": "Point", "coordinates": [-73.979137, 40.597473]} },
{ "type": "Feature", "properties": {"id":439,"station":"Beach 105 St_0","delay":30225600},"geometry": { "type": "Point", "coordinates": [-73.827559, 40.583209]} },
{ "type": "Feature", "properties": {"id":440,"station":"Bay 50 St_0","delay":30113185.5111},"geometry": { "type": "Point", "coordinates": [-73.983765, 40.588841]} },
{ "type": "Feature", "properties": {"id":441,"station":"Rockaway Park - Beach 116 St_0","delay":28843200},"geometry": { "type": "Point", "coordinates": [-73.835592, 40.580903]} },
{ "type": "Feature", "properties": {"id":442,"station":"Van Siclen Av_1","delay":28668201.4286},"geometry": { "type": "Point", "coordinates": [-73.890358, 40.67271]} },
{ "type": "Feature", "properties": {"id":443,"station":"Liberty Av_0","delay":26004394.2857},"geometry": { "type": "Point", "coordinates": [-73.896548, 40.674542]} },
{ "type": "Feature", "properties": {"id":444,"station":"Great Kills_0","delay":25754400},"geometry": { "type": "Point", "coordinates": [-74.151399, 40.551231]} },
{ "type": "Feature", "properties": {"id":445,"station":"New Dorp_0","delay":25534500},"geometry": { "type": "Point", "coordinates": [-74.11721, 40.57348]} },
{ "type": "Feature", "properties": {"id":446,"station":"Bay Terrace_0","delay":25525500},"geometry": { "type": "Point", "coordinates": [-74.136907, 40.5564]} },
{ "type": "Feature", "properties": {"id":447,"station":"Oakwood Heights_0","delay":25459500},"geometry": { "type": "Point", "coordinates": [-74.12632, 40.56511]} },
{ "type": "Feature", "properties": {"id":448,"station":"Eltingville_0","delay":25448400},"geometry": { "type": "Point", "coordinates": [-74.16457, 40.544601]} },
{ "type": "Feature", "properties": {"id":449,"station":"Annadale_0","delay":25286400},"geometry": { "type": "Point", "coordinates": [-74.178217, 40.54046]} },
{ "type": "Feature", "properties": {"id":450,"station":"Huguenot_0","delay":25232400},"geometry": { "type": "Point", "coordinates": [-74.191794, 40.533674]} },
{ "type": "Feature", "properties": {"id":451,"station":"Prince's Bay_0","delay":25088400},"geometry": { "type": "Point", "coordinates": [-74.200064, 40.525507]} },
{ "type": "Feature", "properties": {"id":452,"station":"Old Town_0","delay":24993600},"geometry": { "type": "Point", "coordinates": [-74.087368, 40.596612]} },
{ "type": "Feature", "properties": {"id":453,"station":"Grant City_0","delay":24874500},"geometry": { "type": "Point", "coordinates": [-74.109704, 40.578965]} },
{ "type": "Feature", "properties": {"id":454,"station":"Pleasant Plains_0","delay":24854400},"geometry": { "type": "Point", "coordinates": [-74.217847, 40.52241]} },
{ "type": "Feature", "properties": {"id":455,"station":"Grasmere_0","delay":24842400},"geometry": { "type": "Point", "coordinates": [-74.084087, 40.603117]} },
{ "type": "Feature", "properties": {"id":456,"station":"Clifton_0","delay":24758640},"geometry": { "type": "Point", "coordinates": [-74.071402, 40.621319]} },
{ "type": "Feature", "properties": {"id":457,"station":"Tompkinsville_0","delay":24690240},"geometry": { "type": "Point", "coordinates": [-74.074835, 40.636949]} },
{ "type": "Feature", "properties": {"id":458,"station":"Richmond Valley_0","delay":24663600},"geometry": { "type": "Point", "coordinates": [-74.229141, 40.519631]} },
{ "type": "Feature", "properties": {"id":459,"station":"Jefferson Av_0","delay":24649200},"geometry": { "type": "Point", "coordinates": [-74.103338, 40.583591]} },
{ "type": "Feature", "properties": {"id":460,"station":"Stapleton_0","delay":24625200},"geometry": { "type": "Point", "coordinates": [-74.075162, 40.627915]} },
{ "type": "Feature", "properties": {"id":461,"station":"Dongan Hills_0","delay":24540960},"geometry": { "type": "Point", "coordinates": [-74.09609, 40.588849]} },
{ "type": "Feature", "properties": {"id":462,"station":"St George_0","delay":24514920},"geometry": { "type": "Point", "coordinates": [-74.073643, 40.643748]} },
{ "type": "Feature", "properties": {"id":463,"station":"Arthur Kill_0","delay":24472800},"geometry": { "type": "Point", "coordinates": [-74.242096, 40.516578]} },
{ "type": "Feature", "properties": {"id":464,"station":"Tottenville_0","delay":24307200},"geometry": { "type": "Point", "coordinates": [-74.251961, 40.512764]} }
]}
